bbox,cessation,country_id,deprecated,file_hash,fullname,geom_hash,geom_latitude,geom_longitude,id,inception,iso,iso_country,lastmodified,lbl_latitude,lbl_longitude,locality_id,name,parent_id,path,placetype,region_id,source,superseded_by,supersedes,wof_country
"-77.95553,42.804553,-77.780294,42.919434",uuuu,85633793,,d1d585accd47f753d49b96d849e20f05,,43f39fd8292cc1b5a3c165258f1ddac1,42.866434,-77.886919,404522005,uuuu,US,US,1479863898,42.864167,-77.902791,0,York,102082381,404/522/005/404522005.geojson,localadmin,85688543,quattroshapes,,,US
"-75.437167,42.738111,-75.239547,42.871669",uuuu,85633793,,2a60c9599bd60b81d55b89accd085d0a,,009420f05e20d2cf7674c32360da9151,42.807849,-75.343545,404522007,uuuu,US,US,1479902118,42.804771,-75.343568,0,Brookfield,102080989,404/522/007/404522007.geojson,localadmin,85688543,quattroshapes,,,US
"-75.911541,42.825779,-75.810492,43.006851",uuuu,85633793,,591034b213a40b1d6cd9a4eba5828e44,,dcb4eabfd9b7cca5017a4c80f91acc0a,42.912196,-75.863603,404522009,uuuu,US,US,1479902117,42.911266,-75.862636,0,Cazenovia,102080989,404/522/009/404522009.geojson,localadmin,85688543,quattroshapes,,,US
"-78.191396,42.782488,-78.074002,42.870336",uuuu,85633793,,331354e5b25d0f408af1a298348934e6,,1c39f7ac83f8dbe0f8f2d40010a07dbe,42.826530,-78.132308,404523001,uuuu,US,US,1479863899,42.826305,-78.132307,0,Middlebury,102082389,404/523/001/404523001.geojson,localadmin,85688543,quattroshapes,,,US
"-78.074265,42.713331,-77.95503,42.801786",uuuu,85633793,,e4cf02169b643ec202bab012e995ad3d,,42dcbb7cb74508e055c631363e9e71ec,42.757347,-78.014836,404523003,uuuu,US,US,1479850041,42.757494,-78.014836,0,Perry,102082389,404/523/003/404523003.geojson,localadmin,85688543,quattroshapes,,,US
"-78.190822,42.521135,-78.088582,42.608979",uuuu,85633793,,b669c6660a555694ccb90d95a8a2d769,,dae2951c55efe3327d3ca946de0668c2,42.565144,-78.139636,404523005,uuuu,US,US,1479849218,42.565107,-78.139636,0,Pike,102082389,404/523/005/404523005.geojson,localadmin,85688543,quattroshapes,,,US
"-78.463814,42.693765,-78.307541,42.781238",uuuu,85633793,,374431f39b6bce61fd18689f10a3bd57,,a7ba98378c53a6da2368f7edb965deba,42.737578,-78.385888,404523007,uuuu,US,US,1479849218,42.737456,-78.385888,0,Sheldon,102082389,404/523/007/404523007.geojson,localadmin,85688543,quattroshapes,,,US
"-78.309477,42.60797,-78.19073,42.696028",uuuu,85633793,,430e513daabfa570f0e37f5a43e5e36a,,6fbe67ee9c2a3af8731e2b45a5c15e88,42.652059,-78.249919,404523011,uuuu,US,US,1479849218,42.652164,-78.249919,0,Wethersfield,102082389,404/523/011/404523011.geojson,localadmin,85688543,quattroshapes,,,US
"-77.11439,42.483771,-76.989329,42.578792",uuuu,85633793,,5568a067c553de2a75b33529eb4e0ffe,,bfdbc6d969f83865004386f1429ca855,42.529776,-77.048743,404523013,uuuu,US,US,1479864237,42.531380,-77.048751,0,Barrington,102083079,404/523/013/404523013.geojson,localadmin,85688543,quattroshapes,,,US
"-77.123218,42.668392,-76.942945,42.76443",uuuu,85633793,,bbccce5dd83dba5c46ed5013c9622fa0,,04a6d495295ecfc1ba0cbcaff080d82a,42.722394,-77.051840,404523015,uuuu,US,US,1479864190,42.716452,-77.062588,0,Benton,102083079,404/523/015/404523015.geojson,localadmin,85688543,quattroshapes,,,US
"-77.244057,42.494279,-77.063767,42.669616",uuuu,85633793,,40ab71fecb2abd40e41dde9fdd052788,,c52bd640c75717d68a0e0031dea60a11,42.609048,-77.154830,404523017,uuuu,US,US,1479864237,42.623087,-77.154828,0,Jerusalem,102083079,404/523/017/404523017.geojson,localadmin,85688543,quattroshapes,,,US
"-77.357355,42.669025,-77.233214,42.761399",uuuu,85633793,,c90897ceb130110ac6497c072ba18f8a,,e7c4a8b5d241725f3c414395b847e5a1,42.713323,-77.290889,404523019,uuuu,US,US,1479864190,42.715173,-77.290889,0,Middlesex,102083079,404/523/019/404523019.geojson,localadmin,85688543,quattroshapes,,,US
"-77.092338,42.577626,-76.894061,42.669916",uuuu,85633793,,73b56424d702e17239240c5a7ba2b0e2,,175567ba61b4eaa9158b9576caa16474,42.615019,-77.003099,404523021,uuuu,US,US,1479864190,42.624094,-77.024815,0,Milo,102083079,404/523/021/404523021.geojson,localadmin,85688543,quattroshapes,,,US
"-76.996018,42.459186,-76.889805,42.578933",uuuu,85633793,,dfb02f11e9dff3350c360cee0e0f72e8,,02e3c8461143a0cf800484ea116af908,42.521294,-76.944154,404523023,uuuu,US,US,1479864190,42.521656,-76.944863,0,Starkey,102083079,404/523/023/404523023.geojson,localadmin,85688543,quattroshapes,,,US
"-77.015947,42.622566,-76.894535,42.731921",uuuu,85633793,,ccd04a3afb139562c6efa994eb7efebe,,514aa43bb02d3d405e6804e1e24d9bd0,42.674675,-76.955386,404523025,uuuu,US,US,1479864191,42.673710,-76.950471,0,Torrey,102083079,404/523/025/404523025.geojson,localadmin,85688543,quattroshapes,,,US
"-76.03027,43.698285,-75.904245,43.802669",uuuu,85633793,,11b918b96fd77b5d1d1e16adb4ed701f,,177075183a1f1a42e8d600adae239f80,43.749716,-75.968345,404523029,uuuu,US,US,1479862833,43.749855,-75.968345,0,Lorraine,102082357,404/523/029/404523029.geojson,localadmin,85688543,quattroshapes,,,US
"-76.60082,42.906603,-76.536915,42.959268",uuuu,85633793,,975916cc9449b000b95b9352d27f1da0,,4f914d3d79ad62851c2601c1dccb627f,42.933825,-76.568477,404523031,uuuu,US,US,1479865479,42.932507,-76.572279,0,Auburn,102083071,404/523/031/404523031.geojson,localadmin,85688543,quattroshapes,,,US
"-78.697083,42.605694,-78.579481,42.695772",uuuu,85633793,,cf434fa4484163d7de999a63a59e42fe,,250b0cabc571019d27934b5c4c90504c,42.650792,-78.638538,404523033,uuuu,US,US,1479848274,42.650622,-78.638539,0,Colden,102082387,404/523/033/404523033.geojson,localadmin,85688543,quattroshapes,,,US
"-74.689482,44.875391,-74.499745,44.978868",uuuu,85633793,,330fb67dc30f9f907a7da14e0b1e6937,,8456178de0c4a65f1ac2b29fffdbd632,44.920223,-74.579442,404523035,uuuu,US,US,1479862980,44.915622,-74.579446,0,Bombay,102081817,404/523/035/404523035.geojson,localadmin,85688543,quattroshapes,,,US
"-75.697008,42.829174,-75.559655,42.931592",uuuu,85633793,,5700c2a25fe406f1cb78796af5704bcf,,fac1c93ddd23d2cf8ecb2f6ddea787dd,42.881389,-75.628969,404522011,uuuu,US,US,1479902119,42.881354,-75.628995,0,Eaton,102080989,404/522/011/404522011.geojson,localadmin,85688543,quattroshapes,,,US
"-73.771113,43.373532,-73.678941,43.50998",uuuu,85633793,,2353839331189fef446b5919fd1dfca5,,71ef1b162ffb0a036641b9a5384b2b00,43.437911,-73.723745,404523037,uuuu,US,US,1479862207,43.443719,-73.719155,0,Lake George,102081791,404/523/037/404523037.geojson,localadmin,85688543,quattroshapes,,,US
"-75.416932,42.314094,-75.241317,42.437106",uuuu,85633793,,ded049db29f4b2b4e93a2263c558f3da,,a5c00296f81062f61cf5cdbfb4005e0f,42.370859,-75.326620,404523039,uuuu,US,US,1479849094,42.367444,-75.324921,0,Unadilla,102082399,404/523/039/404523039.geojson,localadmin,85688543,quattroshapes,,,US
"-74.916681,42.597743,-74.751955,42.689431",uuuu,85633793,,77a85f5d60a81921bf509d48423bf121,,1e487f804088afe5dfb91ac8709f3e78,42.640887,-74.816446,404523041,uuuu,US,US,1479848995,42.643260,-74.816446,0,Westford,102082399,404/523/041/404523041.geojson,localadmin,85688543,quattroshapes,,,US
"-74.783092,42.504442,-74.630652,42.661558",uuuu,85633793,,3c455c73882b0b4e35ebde6e96a1ddb0,,78a87674dad95345c40bed404e894dab,42.583389,-74.714148,404523043,uuuu,US,US,1479864063,42.579719,-74.720491,0,Worcester,102082399,404/523/043/404523043.geojson,localadmin,85688543,quattroshapes,,,US
"-73.797456,41.340647,-73.653187,41.439702",uuuu,85633793,,728d9791894e6f29920ed5c01dea82a6,,fbf3ea002613e69e310cacb28e614883,41.389828,-73.723911,404523047,uuuu,US,US,1479864054,41.390914,-73.723910,0,Carmel,102083007,404/523/047/404523047.geojson,localadmin,85688543,quattroshapes,,,US
"-73.838527,41.428468,-73.647635,41.518293",uuuu,85633793,,c4eeb8803c2cafba146fa0e1f3e98411,,a13c2b35aae5924ab79defa16b811ff3,41.473541,-73.731848,404523049,uuuu,US,US,1479864053,41.470637,-73.731850,0,Kent,102083007,404/523/049/404523049.geojson,localadmin,85688543,quattroshapes,,,US
"-73.982584,41.321693,-73.83835,41.498126",uuuu,85633793,,52322d5910773f985f357e022eee8a74,,699fae94946a03e2fb09cfcb814a3601,41.418815,-73.915157,404523051,uuuu,US,US,1479864054,41.434384,-73.928270,0,Philipstown,102083007,404/523/051/404523051.geojson,localadmin,85688543,quattroshapes,,,US
"-73.89346,41.330892,-73.763012,41.478803",uuuu,85633793,,29683a4d15d0c50a665d08407d629697,,544683370da80ba00516199ee10b64df,41.397898,-73.836776,404523053,uuuu,US,US,1479864054,41.397862,-73.842026,0,Putnam Valley,102083007,404/523/053/404523053.geojson,localadmin,85688543,quattroshapes,,,US
"-73.660619,41.355026,-73.5360668139182,41.45133497204269",uuuu,85633793,,38d207036913b773de39eb69479ff978,,00eff3293a8c53ffc6a4e8ca1f8e4326,41.403198,-73.598477,404523055,uuuu,US,US,1479864053,41.403012,-73.598476,0,Southeast,102083007,404/523/055/404523055.geojson,localadmin,85688543,quattroshapes,,,US
"-73.467214,42.606027,-73.2741413047293,42.725299",uuuu,85633793,,28339ab64a3dcd0868cd5450b311e7fc,,2726f5616f930964addf2d95df681183,42.667105,-73.374256,404523057,uuuu,US,US,1479860028,42.668242,-73.383910,0,Berlin,102081773,404/523/057/404523057.geojson,localadmin,85688543,quattroshapes,,,US
"-73.664662,42.698478,-73.506023,42.811159",uuuu,85633793,,36c2568e9e01a9a00dfeb1016750c721,,56cef3441aa77f26e68403897ea62f91,42.755769,-73.590328,404523059,uuuu,US,US,1479860027,42.753537,-73.590328,0,Brunswick,102081773,404/523/059/404523059.geojson,localadmin,85688543,quattroshapes,,,US
"-73.761565,42.57668,-73.628662,42.649214",uuuu,85633793,,b07de07f256f05fd10af963dac5e29e9,,5d9b7f89a1de2dd861b9a1519680ac49,42.612200,-73.696904,404523061,uuuu,US,US,1479860027,42.614583,-73.696909,0,East Greenbush,102081773,404/523/061/404523061.geojson,localadmin,85688543,quattroshapes,,,US
"-73.450593,42.82143,-73.274294,42.958515",uuuu,85633793,,04032bf615ce6ff0f6f7d888d7c3946f,,6df389f51f5b39a3ef01e9c59de876d7,42.890318,-73.356092,404523065,uuuu,US,US,1479864070,42.886111,-73.356111,0,Hoosick,102081773,404/523/065/404523065.geojson,localadmin,85688543,quattroshapes,,,US
"-73.631572,42.479593,-73.467214,42.606027",uuuu,85633793,,609a5e6faa9be8202e9eed829d67900f,,898b9e0fea805018c4d1b2e5d5170dcb,42.543211,-73.546730,404523067,uuuu,US,US,1479860027,42.539928,-73.545139,0,Nassau,102081773,404/523/067/404523067.geojson,localadmin,85688543,quattroshapes,,,US
"-73.898099,42.61379,-73.723263,42.722379",uuuu,85633793,,f197e06f6c12d4135cded3bafcaa1b65,,894aec15fd2a86b3c558ea5252fc6e94,42.666384,-73.798626,404523069,uuuu,US,US,1479860027,42.657753,-73.789866,0,Albany,102082353,404/523/069/404523069.geojson,localadmin,85688543,quattroshapes,,,US
"-76.369926,42.89424,-76.280752,43.014295",uuuu,85633793,,2bf6de8b6c7115b8a570c246eb92667c,,e88eed9270b96a194ef36e31e1628246,42.953939,-76.325453,404523071,uuuu,US,US,1479849305,42.954063,-76.325453,0,Marcellus,102082351,404/523/071/404523071.geojson,localadmin,85688543,quattroshapes,,,US
"-73.728859,42.63568,-73.60846,42.703378",uuuu,85633793,,107bbda3fdd7bbb7943fa146bd63716c,,ee5744a733ad04584f06d5ea61412dc9,42.670578,-73.663288,404523073,uuuu,US,US,1479860027,42.668964,-73.663259,0,North Greenbush,102081773,404/523/073/404523073.geojson,localadmin,85688543,quattroshapes,,,US
"-73.612729,42.798613,-73.415725,42.944806",uuuu,85633793,,6d5ab947eba638540d86428d005e21ff,,82a1dd05af30edcbeeb28e208dabc579,42.864670,-73.505118,404523075,uuuu,US,US,1479864070,42.865897,-73.506961,0,Pittstown,102081773,404/523/075/404523075.geojson,localadmin,85688543,quattroshapes,,,US
"-73.62079,42.653007,-73.433315,42.723023",uuuu,85633793,,87fd68e9697e0432f3191471286c6e45,,8c1d7e85901cf263d1dff4b2bc5a2edb,42.686468,-73.526289,404523077,uuuu,US,US,1479860027,42.685899,-73.526289,0,Poestenkill,102081773,404/523/077/404523077.geojson,localadmin,85688543,quattroshapes,,,US
"-73.759565,42.614178,-73.70227,42.670179",uuuu,85633793,,b018f981fa033142f69f79cbf29709d1,,c04ee0c66c5d02b64fbfb2c3f7933c0d,42.646383,-73.732942,404523079,uuuu,US,US,1479860027,42.647682,-73.737284,0,Rensselaer,102081773,404/523/079/404523079.geojson,localadmin,85688543,quattroshapes,,,US
"-73.684447,42.790592,-73.464464,42.944259",uuuu,85633793,,aac0385aee70489bffd4c1b5b9001cd5,,f5a5b0fd72821c855e036cc5e7152dc8,42.885014,-73.611507,404523083,uuuu,US,US,1479864069,42.888583,-73.628045,0,Schaghticoke,102081773,404/523/083/404523083.geojson,localadmin,85688543,quattroshapes,,,US
"-75.848581,42.931175,-75.718559,43.007532",uuuu,85633793,,865cd057bd5fa41290a5fd63c1734c1e,,afef1bdaa37d39fc6fecf23619c03c8c,42.970933,-75.777445,404522013,uuuu,US,US,1479902117,42.969320,-75.777443,0,Fenner,102080989,404/522/013/404522013.geojson,localadmin,85688543,quattroshapes,,,US
"-76.603016,43.010547,-76.492667,43.097949",uuuu,85633793,,4aa335e742d56b9ae6349f3adf93f264,,ffb6f743d876ad6b0cf22919e7321845,43.045600,-76.545447,404522015,uuuu,US,US,1479865479,43.042240,-76.545460,0,Brutus,102083071,404/522/015/404522015.geojson,localadmin,85688543,quattroshapes,,,US
"-73.786078,42.464231,-73.583749,42.595371",uuuu,85633793,,0ef70b4f109b981025deeacddd168461,,e67fdda3d9ea6a33c76f5459b87ad535,42.529701,-73.685783,404523085,uuuu,US,US,1479860026,42.529201,-73.685822,0,Schodack,102081773,404/523/085/404523085.geojson,localadmin,85688543,quattroshapes,,,US
"-76.601772,43.070869,-76.471873,43.182953",uuuu,85633793,,1276e4297d46152c994af9d7025da711,,2a7701be8bdb5e69fc86e506955a956f,43.125944,-76.535654,404522017,uuuu,US,US,1479865478,43.121199,-76.540923,0,Cato,102083071,404/522/017/404522017.geojson,localadmin,85688543,quattroshapes,,,US
"-73.706463,42.694078,-73.649461,42.795791",uuuu,85633793,,76706a5e8bf24da5b2da13823f5260bc,,fe973a41632fec83a80bcf6a3557e4a0,42.735427,-73.675137,404523087,uuuu,US,US,1479860026,42.718627,-73.677084,0,Troy,102081773,404/523/087/404523087.geojson,localadmin,85688543,quattroshapes,,,US
"-74.256088,40.496103,-74.053125,40.648601",uuuu,85633793,,366153aec98489800d60861493f2b379,,0f2e54db076b7c3a75f24c52ff3e1086,40.580729,-74.152380,404523089,uuuu,US,US,1479862466,40.587375,-74.145427,0,Staten Island,102081779,404/523/089/404523089.geojson,localadmin,85688543,quattroshapes,421205775,,US
"-74.041646,41.07832,-73.88718,41.19251",uuuu,85633793,,bbaf6d6409d0c6d7b7fba6f338e14fca,,c9a200776c85217ca01ca92cb9daa852,41.131938,-73.966045,404523091,uuuu,US,US,1479850093,41.132355,-73.967515,0,Clarkstown,102082385,404/523/091/404523091.geojson,localadmin,85688543,quattroshapes,,,US
"-74.161789,41.175434,-73.921697,41.2408",uuuu,85633793,,8bbe68c3c0853f88ab429747e54cae7a,,b12404c04f8279fcd30ba4d6e0f3ab20,41.205464,-74.038395,404523093,uuuu,US,US,1479863866,41.202685,-74.036601,0,Haverstraw,102082385,404/523/093/404523093.geojson,localadmin,85688543,quattroshapes,,,US
"-74.0508612591911,40.997197,-73.88938,41.101044",uuuu,85633793,,bd44900a69f12079b7072e456d48c41c,,2c3db88a9c34b72f5e2026347ecf764c,41.052595,-73.947487,404523095,uuuu,US,US,1479908953,41.051374,-73.932750,0,Orangetown,102082385,404/523/095/404523095.geojson,localadmin,85688543,quattroshapes,,,US
"-76.715714,43.059417,-76.587984,43.167149",uuuu,85633793,,3e7a26ec8dd044c8e499c4b5b24ba576,,f66250f2aea0c18dbeaa37db93182a75,43.118742,-76.649709,404522021,uuuu,US,US,1479865478,43.123634,-76.650925,0,Conquest,102083071,404/522/021/404522021.geojson,localadmin,85688543,quattroshapes,,,US
"-74.234473,41.0634371205403,-74.018524,41.195794",uuuu,85633793,,6afd7a5ae000a3d3a08f44699e6735d6,,03ae5c9a1158f8e2a3df323c16b9835d,41.140361,-74.107221,404523097,uuuu,US,US,1479908951,41.139933,-74.107222,0,Ramapo,102082385,404/523/097/404523097.geojson,localadmin,85688543,quattroshapes,,,US
"-76.635186,42.836295,-76.515348,42.911594",uuuu,85633793,,e464f19bdce5c0362bd5dc12f590a432,,cc0b6be66781c6b17c44ed0766d43a0a,42.870015,-76.577828,404522023,uuuu,US,US,1479865479,42.875005,-76.565858,0,Fleming,102083071,404/522/023/404522023.geojson,localadmin,85688543,quattroshapes,,,US
"-76.600761,43.167149,-76.47594,43.256641",uuuu,85633793,,867c33d9970cd6e595c2eb6469891852,,f6d9b42f41b238a02a89d55de9e96838,43.213406,-76.539286,404522025,uuuu,US,US,1479865480,43.212395,-76.539285,0,Ira,102083071,404/522/025/404522025.geojson,localadmin,85688543,quattroshapes,,,US
"-76.740201,42.677311,-76.62076,42.822087",uuuu,85633793,,f800c56da255a2b0cfe2fb7aced97e1d,,455d19f6976c9070eb7c1af327ea31fe,42.746941,-76.677376,404522027,uuuu,US,US,1479865478,42.746344,-76.678520,0,Ledyard,102083071,404/522/027/404522027.geojson,localadmin,85688543,quattroshapes,,,US
"-76.4626,42.618615,-76.364918,42.695521",uuuu,85633793,,09218301a6227128adcc03dced9d0007,,8420dd9544649e4b3aa155cc576525f0,42.656788,-76.413515,404522029,uuuu,US,US,1479865479,42.656750,-76.413513,0,Locke,102083071,404/522/029/404522029.geojson,localadmin,85688543,quattroshapes,,,US
"-76.737975,42.961286,-76.662067,43.07015",uuuu,85633793,,982c20f7a9141c81c7da2deb6c7f024e,,5cc77e06078fb4d39f84ea17f51fa8ff,43.012224,-76.694944,404522031,uuuu,US,US,1479865478,43.002506,-76.691871,0,Montezuma,102083071,404/522/031/404522031.geojson,localadmin,85688543,quattroshapes,,,US
"-76.481906,42.691777,-76.367572,42.782356",uuuu,85633793,,65b264cc5a1aa6b0681ed21e4850b008,,baff583094d41c7ef51b6a9cc073ce70,42.737804,-76.418826,404522033,uuuu,US,US,1479865479,42.736712,-76.418824,0,Moravia,102083071,404/522/033/404522033.geojson,localadmin,85688543,quattroshapes,,,US
"-76.515348,42.778666,-76.279067,42.849448",uuuu,85633793,,9aab29111e69e6f33507c994dd84f889,,a14e7c79c08474ebcfbee044ccdd4f10,42.812687,-76.405857,404522035,uuuu,US,US,1479865479,42.813967,-76.405876,0,Niles,102083071,404/522/035/404522035.geojson,localadmin,85688543,quattroshapes,,,US
"-76.552811,42.840964,-76.450738,42.929524",uuuu,85633793,,890ceb9e52d4333ac99e7692ef8cf970,,1de39ad63a4dd6480e5a29163b826a0b,42.888296,-76.494027,404522039,uuuu,US,US,1479865479,42.890748,-76.493055,0,Owasco,102083071,404/522/039/404522039.geojson,localadmin,85688543,quattroshapes,,,US
"-74.09884,41.213996,-73.945783,41.324693",uuuu,85633793,,5891b292dd89895db09b68cf60871e1a,,32243ce52de7658303f6fa798349052e,41.259254,-74.011230,404523101,uuuu,US,US,1479864053,41.258273,-74.010085,0,Stony Point,102082385,404/523/101/404523101.geojson,localadmin,85688543,quattroshapes,,,US
"-75.342465,44.476893,-75.052423,44.682968",uuuu,85633793,,36fc649567631ea31ddd520e731c0247,,3962404ba7318e5bbeb14d51bd733bdf,44.580173,-75.197777,404523103,uuuu,US,US,1479849584,44.580274,-75.197771,0,Canton,102082379,404/523/103/404523103.geojson,localadmin,85688543,quattroshapes,,,US
"-75.048673,44.066829,-74.768108,44.332747",uuuu,85633793,,da2efe2bd0bbf13dc5bab7abeb35b1dd,,4456e5a3dcb471b999a6a60e3ab06733,44.202375,-74.886372,404523105,uuuu,US,US,1479864914,44.215701,-74.861025,0,Clifton,102082379,404/523/105/404523105.geojson,localadmin,85688543,quattroshapes,,,US
"-74.955875,44.077604,-74.649076,44.575099",uuuu,85633793,,9c06a198917becc575a4dc3d0a8218a8,,e4ccd60ca783cc4eaf2d2c6efc367edc,44.337675,-74.791279,404523107,uuuu,US,US,1479864914,44.385148,-74.767943,0,Colton,102082379,404/523/107/404523107.geojson,localadmin,85688543,quattroshapes,,,US
"-75.475167,44.387914,-75.229186,44.591706",uuuu,85633793,,03949f1c185d066cbddfb94ea0a11141,,c176fe199e4359677664918089c6ed6c,44.487042,-75.354608,404523109,uuuu,US,US,1479849583,44.501070,-75.334053,0,De Kalb,102082379,404/523/109/404523109.geojson,localadmin,85688543,quattroshapes,,,US
"-75.546416,44.475022,-75.373213,44.623196",uuuu,85633793,,a22bfd716ff9d503132c030809c08b31,,25390433fce5f82fbe47df03a41ba363,44.549711,-75.457359,404523111,uuuu,US,US,1479849584,44.551351,-75.451452,0,De Peyster,102082379,404/523/111/404523111.geojson,localadmin,85688543,quattroshapes,,,US
"-76.372463,42.695539,-76.270012,42.785866",uuuu,85633793,,4e195192e28d01cbcd8748d796d46534,,cad438f1fb61b824af52f05bc82fa17c,42.740285,-76.321235,404522041,uuuu,US,US,1479865479,42.740335,-76.321287,0,Sempronius,102083071,404/522/041/404522041.geojson,localadmin,85688543,quattroshapes,,,US
"-76.57121,42.926935,-76.457428,43.015312",uuuu,85633793,,110ae81fe574decca87616ebdef0d225,,17645e11e21ce856c72ecf8fe0f8ecb5,42.972353,-76.511994,404522043,uuuu,US,US,1479865479,42.971205,-76.506305,0,Sennett,102083071,404/522/043/404522043.geojson,localadmin,85688543,quattroshapes,,,US
"-75.261169,44.0504,-74.889302,44.306165",uuuu,85633793,,7f4495b2c89f4f7e48fbcae49f5d1ad5,,dd43af97550cc8306900294b70a4bc47,44.162275,-75.073657,404523113,uuuu,US,US,1479862193,44.161182,-75.107463,0,Fine,102082379,404/523/113/404523113.geojson,localadmin,85688543,quattroshapes,,,US
"-75.590252,44.276397,-75.368282,44.475532",uuuu,85633793,,3c300d36ed2289dde2f2baf9bc1267f3,,aaf3318c4392b426c9f0e635e22b9f2b,44.367348,-75.483771,404523115,uuuu,US,US,1479849584,44.374411,-75.472826,0,Gouverneur,102082379,404/523/115/404523115.geojson,localadmin,85688543,quattroshapes,,,US
"-75.8600599283155,44.346353,-75.628394,44.53513307927089",uuuu,85633793,,805d7b14d919cca4088d25f83b8d66d4,,8b62712c1467be4f93b9f661f58d2303,44.435258,-75.739858,404523119,uuuu,US,US,1479850102,44.435691,-75.741622,0,Hammond,102082379,404/523/119/404523119.geojson,localadmin,85688543,quattroshapes,,,US
"-76.733468,42.806142,-76.630705,42.897532",uuuu,85633793,,fc11111ba7ad3b56115306db98736fa9,,9593ba2af7c670121d0d4154c02dd356,42.853427,-76.678793,404522045,uuuu,US,US,1479865479,42.852078,-76.677798,0,Springport,102083071,404/522/045/404522045.geojson,localadmin,85688543,quattroshapes,,,US
"-76.7225013043099,43.249288,-76.605012,43.418189",uuuu,85633793,,b799d1e3aa516bdee5eb1e83a540c27c,,bcd0f3340f5961173f2d53eb7da19447,43.315689,-76.657955,404522047,uuuu,US,US,1479865478,43.311188,-76.657956,0,Sterling,102083071,404/522/047/404522047.geojson,localadmin,85688543,quattroshapes,,,US
"-76.6679,42.951463,-76.567733,43.011512",uuuu,85633793,,b3395ae161a808716a706a91d197af5d,,9d0f5a84f605251fdd9be319b54c40ca,42.981541,-76.617026,404522049,uuuu,US,US,1479865479,42.980619,-76.619695,0,Throop,102083071,404/522/049/404522049.geojson,localadmin,85688543,quattroshapes,,,US
"-76.71336,43.161738,-76.593329,43.253742",uuuu,85633793,,65e5e45a311d93fa8b549b68a3b791ed,,31c830be592c54fcc77637c4cf08568c,43.207834,-76.653853,404522051,uuuu,US,US,1479865478,43.207881,-76.653854,0,Victory,102083071,404/522/051/404522051.geojson,localadmin,85688543,quattroshapes,,,US
"-73.73127,44.526099,-73.36160725692869,44.6329290148338",uuuu,85633793,,3ac5957dee65a4a39c4e205dca582636,,def3dd4329188b6295f4cec6009fae81,44.582037,-73.555986,404522053,uuuu,US,US,1479903414,44.582629,-73.555982,0,Peru,102081797,404/522/053/404522053.geojson,localadmin,85688543,quattroshapes,,,US
"-73.483953,44.667215,-73.42954,44.725093",uuuu,85633793,,6eb61aaa7a973d9db29747489205a749,,b8a6dd3e10e72a0d29b500b2b127ae80,44.695025,-73.456281,404522057,uuuu,US,US,1479862222,44.694295,-73.455740,0,Plattsburgh,102081797,404/522/057/404522057.geojson,localadmin,85688543,quattroshapes,,,US
"-73.670758,44.622932,-73.35391933709289,44.7563052702748",uuuu,85633793,,b10e8233ac514d1525a10b31294364b2,,21b5a725bc482bcb2572a2e16c27fcc1,44.695909,-73.478973,404522059,uuuu,US,US,1479903414,44.704618,-73.514203,0,Plattsburgh,102081797,404/522/059/404522059.geojson,localadmin,85688543,quattroshapes,,,US
"-74.790726,44.342688,-74.5535,44.727764",uuuu,85633793,,bc6af5e5313d73f54602516b0e3eb616,,3c18ed26ef68c2cef5f531fa597bb5ed,44.540398,-74.662265,404523121,uuuu,US,US,1479862979,44.547152,-74.648149,0,Hopkinton,102082379,404/523/121/404523121.geojson,localadmin,85688543,quattroshapes,,,US
"-74.780798,44.686247,-74.604572,44.815154",uuuu,85633793,,87377053d88fba85a2f6e1e096cc6576,,b7ff27c3d751db2ff3079587fd78d4f3,44.758655,-74.676741,404523123,uuuu,US,US,1479862981,44.757862,-74.669601,0,Lawrence,102082379,404/523/123/404523123.geojson,localadmin,85688543,quattroshapes,,,US
"-75.449407,44.601419,-75.170452,44.82565258007",uuuu,85633793,,73bc065cd5d6f2573dc8dc4afc2b3914,,a2724c77e8e0c2405bb0b5d4d5bb0775,44.710503,-75.318416,404523125,uuuu,US,US,1479849584,44.709716,-75.316302,0,Lisbon,102082379,404/523/125/404523125.geojson,localadmin,85688543,quattroshapes,,,US
"-74.241572,42.53784,-74.001036,42.652333",uuuu,85633793,,30d44ef00fcc0ae06bcce5c02dfd6ebd,,a2c207b970d26dd58e395022efaff72b,42.592719,-74.116021,404521131,uuuu,US,US,1479864064,42.595153,-74.116019,0,Berne,102082353,404/521/131/404521131.geojson,localadmin,85688543,quattroshapes,,,US
"-73.661884,44.615953,-73.495261,44.705714",uuuu,85633793,,9dc6b946a0996d6e1fd528435876f659,,efc1b6a86cb445559607cb4900d748b9,44.657964,-73.583429,404522061,uuuu,US,US,1479862221,44.656698,-73.581837,0,Schuyler Falls,102081797,404/522/061/404522061.geojson,localadmin,85688543,quattroshapes,,,US
"-75.656083,44.335895,-75.475167,44.550853",uuuu,85633793,,942f5d468b3b06c287d523297ce7740e,,89f93f0bf8d86b8f3b4cd2595c0aa9c5,44.444509,-75.565029,404523127,uuuu,US,US,1479849584,44.441938,-75.558856,0,Macomb,102082379,404/523/127/404523127.geojson,localadmin,85688543,quattroshapes,,,US
"-75.242724,44.696556,-75.012871,44.847083",uuuu,85633793,,6f3550fa2c52ecdd0c8d4b230ac907e6,,e3919024259ba2cf510fd450de5c3273,44.769903,-75.127812,404523129,uuuu,US,US,1479849583,44.769953,-75.127823,0,Madrid,102082379,404/523/129/404523129.geojson,localadmin,85688543,quattroshapes,,,US
"-74.949388,44.893924,-74.720307,45.01585",uuuu,85633793,,210cb9f792824c0e1da1757d9a49ee3f,,c60802bf28daa55b9bedfad3b5d60efb,44.960699,-74.834148,404523131,uuuu,US,US,1479862979,44.965575,-74.831965,0,Massena,102082379,404/523/131/404523131.geojson,localadmin,85688543,quattroshapes,,,US
"-75.73821051623919,44.438173,-75.544626,44.6258487625818",uuuu,85633793,,04cba17a2311c71671b000b8f2aaca16,,f76ac6e8c28f67c3cf95c2191fc31ce0,44.536700,-75.637106,404523133,uuuu,US,US,1479849584,44.537684,-75.643759,0,Morristown,102082379,404/523/133/404523133.geojson,localadmin,85688543,quattroshapes,,,US
"-75.059773,44.749427,-74.832367,44.914283",uuuu,85633793,,972f2729c2af91a5c230c07de66baf00,,08daa85b54cebdb78b584b869ff888aa,44.832037,-74.946740,404523137,uuuu,US,US,1479849583,44.825136,-74.957935,0,Norfolk,102082379,404/523/137/404523137.geojson,localadmin,85688543,quattroshapes,,,US
"-75.6103096123732,44.552965,-75.333514,44.705229",uuuu,85633793,,8bfb3cce6b2fd235353034d948f639d1,,0cc2f59a8abc205c520a4417efe4eabb,44.629437,-75.481689,404523139,uuuu,US,US,1479849583,44.623850,-75.529915,0,Oswegatchie,102082379,404/523/139/404523139.geojson,localadmin,85688543,quattroshapes,,,US
"-74.962602,44.451079,-74.702732,44.694209",uuuu,85633793,,30745f78b19e67421adf58739558df6a,,94ac1b149116400a8b666db531886034,44.569205,-74.819281,404523141,uuuu,US,US,1479849583,44.511171,-74.767136,0,Parishville,102082379,404/523/141/404523141.geojson,localadmin,85688543,quattroshapes,,,US
"-75.094972,44.460513,-74.942156,44.625384",uuuu,85633793,,1da2bbeae1ff9a622c9c074384cc1f1d,,9713e94eb2571d57497c94e56c51f892,44.528173,-75.013655,404523143,uuuu,US,US,1479849583,44.524973,-75.007470,0,Pierrepont,102082379,404/523/143/404523143.geojson,localadmin,85688543,quattroshapes,,,US
"-75.413334,44.136123,-75.179763,44.246016",uuuu,85633793,,3ecd46d3ab99f70fe2365f216b4a437c,,f6141e5ef878c956c783d9e7cc85f30d,44.194767,-75.277003,404523145,uuuu,US,US,1479857458,44.189064,-75.253661,0,Pitcairn,102082379,404/523/145/404523145.geojson,localadmin,85688543,quattroshapes,,,US
"-75.409058,44.339354,-75.20771,44.479786",uuuu,85633793,,b22cf10144765a048646ca06d23326ec,,557685235cd7a8cff51366ac22e9ce60,44.398886,-75.288567,404523147,uuuu,US,US,1479849583,44.401392,-75.281694,0,Hermon,102082379,404/523/147/404523147.geojson,localadmin,85688543,quattroshapes,,,US
"-75.183056,44.575407,-74.896098,44.779338",uuuu,85633793,,26e5035be7bba7ac41a22c9b74dd97a3,,978968f235cafd3f59c8bc3a785dab45,44.677449,-75.039611,404523149,uuuu,US,US,1479849584,44.677555,-75.039675,0,Potsdam,102082379,404/523/149/404523149.geojson,localadmin,85688543,quattroshapes,,,US
"-75.735137,44.246897,-75.509752,44.407936",uuuu,85633793,,5ddbeaef3adb81874e4f8ddaaac58609,,9613da77bf7254c06d85641b275e9d3d,44.331782,-75.630454,404523151,uuuu,US,US,1479850102,44.350340,-75.650895,0,Rossie,102082379,404/523/151/404523151.geojson,localadmin,85688543,quattroshapes,,,US
"-74.983658,44.649756,-74.714059,44.848323",uuuu,85633793,,6c47e45fe4ef6c1f54493c8ac481d208,,6a8ead63c6148164cfdd268ebfbdf90d,44.746677,-74.851668,404523155,uuuu,US,US,1479849583,44.750754,-74.842477,0,Stockholm,102082379,404/523/155/404523155.geojson,localadmin,85688543,quattroshapes,,,US
"-75.30763,44.757397,-75.079046,44.9020929250554",uuuu,85633793,,3abfe83345fb5aa768ab7b21230547a8,,1dc61a0a947579ef44b4c081b57e4c86,44.833584,-75.196030,404523157,uuuu,US,US,1479849584,44.831242,-75.196052,0,Waddington,102082379,404/523/157/404523157.geojson,localadmin,85688543,quattroshapes,,,US
"-73.934509,42.888629,-73.822921,43.00173",uuuu,85633793,,196b775a24193327f9209a23a1de2008,,fbaddbb3b14e1fad0b7efbc7e52a5666,42.954205,-73.879438,404523159,uuuu,US,US,1479861081,42.956988,-73.880523,0,Ballston,102082413,404/523/159/404523159.geojson,localadmin,85688543,quattroshapes,,,US
"-73.975523,42.441622,-73.76377,42.54272",uuuu,85633793,,fdfdaa9a0f4d891562bb3eb1b0a67367,,9f8b42873de630ef207fa1447df3e444,42.493581,-73.883467,404521133,uuuu,US,US,1479860027,42.492485,-73.883467,0,Coeymans,102082353,404/521/133/404521133.geojson,localadmin,85688543,quattroshapes,,,US
"-73.65325,41.97798,-73.496879,42.08811",uuuu,85633793,,3deac4165ad75befdddb253fa94c53e5,,430f49def13ca3e6d453cc79e3d94b00,42.035173,-73.582177,404522063,uuuu,US,US,1479852434,42.032842,-73.582179,0,Ancram,102082369,404/522/063/404522063.geojson,localadmin,85688543,quattroshapes,,,US
"-73.595485,42.2639356504791,-73.4140751008963,42.36028",uuuu,85633793,,b95ce24c117229e97814d781060cca77,,7ded5a7086d62289e3dab6ccc913c716,42.312382,-73.507535,404522065,uuuu,US,US,1479852432,42.312156,-73.507535,0,Austerlitz,102082369,404/522/065/404522065.geojson,localadmin,85688543,quattroshapes,,,US
"-73.65249,42.357093,-73.520051,42.492207",uuuu,85633793,,8b7074359367785a4763aace0c4141d3,,25fe68c44efa60082959196ff31a2ab0,42.424955,-73.580996,404522067,uuuu,US,US,1479860028,42.425346,-73.581878,0,Chatham,102082369,404/522/067/404522067.geojson,localadmin,85688543,quattroshapes,,,US
"-74.096897,42.897306,-73.918483,42.993612",uuuu,85633793,,618cf92e00f0149d317995e8e252ef55,,4f3ea96eea05174ffe4db0173d91b96f,42.954319,-73.989939,404523161,uuuu,US,US,1479861082,42.952800,-73.968997,0,Charlton,102082413,404/523/161/404523161.geojson,localadmin,85688543,quattroshapes,,,US
"-73.731717,42.751143,-73.676762,42.794077",uuuu,85633793,,61fa6713690edeb3f664daf56bb24952,,e3de2450134eadedd22596875aa46561,42.773303,-73.707666,404521135,uuuu,US,US,1479860026,42.775137,-73.714122,0,Cohoes,102082353,404/521/135/404521135.geojson,localadmin,85688543,quattroshapes,,,US
"-74.264863,42.407127,-74.090671,42.551216",uuuu,85633793,,c78a8112771fe180df461daa2c46bf23,,eae34d2f3aaa474696b67c8d03d04de4,42.475219,-74.174227,404521139,uuuu,US,US,1479864064,42.481744,-74.167159,0,Rensselaerville,102082353,404/521/139/404521139.geojson,localadmin,85688543,quattroshapes,,,US
"-78.074237,42.347443,-77.955953,42.43543",uuuu,85633793,,18bb1bbb3f5d0ab8fa8506ddf4cc3766,,382e2f10d17e63205a9150bb7dba6839,42.391383,-78.015128,404521141,uuuu,US,US,1479848484,42.391277,-78.015128,0,Allen,102082403,404/521/141/404521141.geojson,localadmin,85688543,quattroshapes,,,US
"-77.897726,42.102266,-77.741531,42.194588",uuuu,85633793,,8060cc04f26f42289960538a88c79feb,,ad79a3de8a7db3704e64219d593da8e3,42.151200,-77.806677,404521143,uuuu,US,US,1479864238,42.149007,-77.806677,0,Andover,102082403,404/521/143/404521143.geojson,localadmin,85688543,quattroshapes,,,US
"-77.840417,42.404039,-77.722964,42.474576",uuuu,85633793,,1d61cc63313986e16b97adb94c7f9f69,,32e68871a81bc997f061e06a65bd1b7f,42.439486,-77.782000,404521145,uuuu,US,US,1479864239,42.439168,-77.782000,0,Burns,102082403,404/521/145/404521145.geojson,localadmin,85688543,quattroshapes,,,US
"-78.309193,42.173325,-78.191273,42.263474",uuuu,85633793,,1e9db1dacf2e546bc38af58d66d62fd8,,22fdfe54bb66a03319f89c1f4d9ec842,42.217003,-78.249508,404521147,uuuu,US,US,1479862393,42.217166,-78.249506,0,Cuba,102082403,404/521/147/404521147.geojson,localadmin,85688543,quattroshapes,,,US
"-73.766739,42.163704,-73.601136,42.283205",uuuu,85633793,,748d29cfb02dee0b6aca1181e3fa503b,,1977b7f314e64416f1bfc925611039f7,42.223507,-73.687255,404522069,uuuu,US,US,1479849934,42.222176,-73.697081,0,Claverack,102082369,404/522/069/404522069.geojson,localadmin,85688543,quattroshapes,,,US
"-73.929626,42.023483,-73.755669,42.152738",uuuu,85633793,,30457551474f352b843f31245eaaa9ea,,20a0c7d068d14e26b33a4c34866cec3d,42.084747,-73.856014,404522071,uuuu,US,US,1479861256,42.081350,-73.828227,0,Clermont,102082369,404/522/071/404522071.geojson,localadmin,85688543,quattroshapes,,,US
"-73.900903,42.778869,-73.768665,42.929547",uuuu,85633793,,56d102401dc34e4caa10085e4b48cf94,,a5d38b1ef1f9a7ea5a166d13855c84d1,42.858737,-73.824167,404523163,uuuu,US,US,1479861081,42.859259,-73.822913,0,Clifton Park,102082413,404/523/163/404523163.geojson,localadmin,85688543,quattroshapes,,,US
"-74.150062,43.1539,-73.977482,43.323085",uuuu,85633793,,b0b214a466b171773da1dbe270d90327,,c4672a94514273214185a4bbf2b0fd39,43.226226,-74.068571,404523167,uuuu,US,US,1479864914,43.212736,-74.077200,0,Edinburg,102082413,404/523/167/404523167.geojson,localadmin,85688543,quattroshapes,,,US
"-73.978838,43.079126,-73.770673,43.193",uuuu,85633793,,e63cd70e2116df529d084e5550a06299,,97f5df8f62cb5a0bc59f30d1a7637044,43.137358,-73.876280,404523169,uuuu,US,US,1479849525,43.137339,-73.876280,0,Greenfield,102082413,404/523/169/404523169.geojson,localadmin,85688543,quattroshapes,,,US
"-74.000391,43.271418,-73.824615,43.397988",uuuu,85633793,,abb6e61a1f4f3c2b4c91725be79eee43,,9be1b74311b9f7b8c55b53929067561c,43.335924,-73.903777,404523173,uuuu,US,US,1479862207,43.338700,-73.902439,0,Hadley,102082413,404/523/173/404523173.geojson,localadmin,85688543,quattroshapes,,,US
"-73.775629,42.785877,-73.659663,42.928837",uuuu,85633793,,431797bfa1db04089408f705906b7924,,82bf6f6112c1ea38f077b4e2fab82690,42.863950,-73.727562,404523175,uuuu,US,US,1479860027,42.865644,-73.727556,0,Halfmoon,102082413,404/523/175/404523175.geojson,localadmin,85688543,quattroshapes,,,US
"-73.794614,41.995016,-73.642191,42.101419",uuuu,85633793,,d7dcc24571a38ce440c287412b1fc12a,,2b8af67315a69364e8046c55a40b5256,42.051084,-73.710272,404522075,uuuu,US,US,1479849934,42.049993,-73.708850,0,Gallatin,102082369,404/522/075/404522075.geojson,localadmin,85688543,quattroshapes,,,US
"-77.956094,42.435146,-77.839511,42.518369",uuuu,85633793,,e3f4aa7d60775b2637682240186d710d,,af64d6423fd394cae35a9f6f3903fc54,42.476538,-77.897990,404521149,uuuu,US,US,1479850040,42.476692,-77.897990,0,Grove,102082403,404/521/149/404521149.geojson,localadmin,85688543,quattroshapes,,,US
"-78.309159,42.224498,-78.297247,42.239039",uuuu,85633793,,ed6863e8ea08575551f71e944809b254,,d3943b94ffccd48c26a05cf8bba4cd07,42.231700,-78.303281,404521151,uuuu,US,US,1479862395,42.231743,-78.303281,0,Oil Springs,102082403,404/521/151/404521151.geojson,localadmin,85688543,quattroshapes,,,US
"-77.956803,42.187979,-77.83898,42.261474",uuuu,85633793,,8df562f89e69025f5d9bbea874293114,,27097a9ca3594236541e31967176a5e3,42.225728,-77.898939,404521153,uuuu,US,US,1479848484,42.227144,-77.895797,0,Ward,102082403,404/521/153/404521153.geojson,localadmin,85688543,quattroshapes,,,US
"-77.9571540665524,41.99853556838359,-77.839659,42.086792",uuuu,85633793,,24b2ac0f545323161dcae16af1a49558,,e0b3e10523a4f826c851f04dca62c41e,42.042450,-77.898194,404521157,uuuu,US,US,1479861036,42.042616,-77.898194,0,Willing,102082403,404/521/157/404521157.geojson,localadmin,85688543,quattroshapes,,,US
"-73.9334079229381,40.785743,-73.76512788928989,40.917577",uuuu,85633793,,c91a276a09ea081e5f6ffa5598884a0c,,7250e1cafdba2b9ee25a9132f082c5d7,40.849919,-73.864839,404521159,uuuu,US,US,1479908951,40.848783,-73.864416,0,Bronx,102083063,404/521/159/404521159.geojson,localadmin,85688543,quattroshapes,421205773,,US
"-75.94766,42.115196,-75.874911,42.144175",uuuu,85633793,,d1d70b0dc22075612d40f5535050dbe5,,7a12f77a6f8ef9cd94eaebecbb4f551c,42.130111,-75.909728,404521161,uuuu,US,US,1479861943,42.131424,-75.909027,0,Dickinson,102081755,404/521/161/404521161.geojson,localadmin,85688543,quattroshapes,,,US
"-76.106582,42.233549,-75.977628,42.322033",uuuu,85633793,,e96b8525db3e57416675ac52c495dc4d,,afaf0c0f9d01e264e09ab841ccd46503,42.281857,-76.028395,404521163,uuuu,US,US,1479861943,42.286597,-76.014270,0,Nanticoke,102081755,404/521/163/404521163.geojson,localadmin,85688543,quattroshapes,,,US
"-78.58085,41.9996635005145,-78.463198,42.174255",uuuu,85633793,,523e6771aa8ac8109412704544d4bd6d,,6810ba8611c2d990e3a63128e4e9d097,42.086935,-78.521158,404521165,uuuu,US,US,1479903252,42.086856,-78.516449,0,Allegany,102081853,404/521/165/404521165.geojson,localadmin,85688543,quattroshapes,,,US
"-79.060399,42.172536,-78.942819,42.260553",uuuu,85633793,,474747a73a9f412ba90d72b4d438cca3,,161ac23aa9f22dc6eb7b71e824516da2,42.216716,-79.001428,404521167,uuuu,US,US,1479862394,42.216705,-79.001428,0,Conewango,102081853,404/521/167/404521167.geojson,localadmin,85688543,quattroshapes,,,US
"-78.697206,42.259099,-78.582768,42.381542",uuuu,85633793,,19a0e0c9e07b73a472488a11615cbdf4,,214203056dcffef4becea4636efc309b,42.316644,-78.637274,404521169,uuuu,US,US,1479862395,42.310523,-78.634224,0,Ellicottville,102081853,404/521/169/404521169.geojson,localadmin,85688543,quattroshapes,,,US
"-73.915321,42.083498,-73.843835,42.182462",uuuu,85633793,,bcf448bd323cb64a887c34f329c67f23,,8ba9034fe5a71f8ba1c25a174bb5f5b5,42.134106,-73.873516,404522077,uuuu,US,US,1479861256,42.136648,-73.875953,0,Germantown,102082369,404/522/077/404522077.geojson,localadmin,85688543,quattroshapes,,,US
"-79.192944,42.435345,-79.060939,42.569965",uuuu,85633793,,beb4492f5fb905c22ced4c6aebf41efb,,dee59096c6ded9207dde562a7ef993f3,42.492163,-79.125290,404522079,uuuu,US,US,1479862394,42.489070,-79.124033,0,Hanover,102081811,404/522/079/404522079.geojson,localadmin,85688543,quattroshapes,,,US
"-79.27164,42.076034,-79.206097,42.127043",uuuu,85633793,,c311e70fbf3641859c19507d6375d471,,703b213a97405c0f66832b050560f1ec,42.097496,-79.236672,404522081,uuuu,US,US,1479861446,42.097498,-79.236676,0,Jamestown,102081811,404/522/081/404522081.geojson,localadmin,85688543,quattroshapes,,,US
"-73.837087,42.920795,-73.724248,43.04408",uuuu,85633793,,0c28ce4f8d3f67abb10cada6df2f042e,,8b09797b9563e2f741310c7929a6685d,42.985248,-73.787922,404523177,uuuu,US,US,1479849525,42.983467,-73.789006,0,Malta,102082413,404/523/177/404523177.geojson,localadmin,85688543,quattroshapes,,,US
"-72.59261577287239,40.926724,-71.92680238074969,41.29012205915379",uuuu,85633793,,86f4d237c212f5529c3c3428f61dca74,,e14b1b7f6c2baa2f8693ece3fd7b686b,41.046370,-72.413012,404523179,uuuu,US,US,1479849588,41.000458,-72.473926,0,Southold,102082395,404/523/179/404523179.geojson,localadmin,85688543,quattroshapes,,,US
"-75.06883,41.618265,-74.930185,41.72919328464909",uuuu,85633793,,6c0b43f287687f98a8ac264e771c5536,,a00702dd39d71dc19ad3dc2b79261cf5,41.679233,-74.993497,404523181,uuuu,US,US,1479862925,41.680290,-74.993497,0,Cochecton,102082407,404/523/181/404523181.geojson,localadmin,85688543,quattroshapes,,,US
"-75.10464,41.713708,-74.921903,41.8035850495919",uuuu,85633793,,f218d942bce19cf8d9faeea872388f38,,0ed9579fc5887c642589d907407a91bb,41.759597,-75.003723,404523183,uuuu,US,US,1479862926,41.757798,-75.005467,0,Delaware,102082407,404/523/183/404523183.geojson,localadmin,85688543,quattroshapes,,,US
"-74.704549,41.646019,-74.491062,41.824258",uuuu,85633793,,596f27eee44fa8c34e8dc5635f8e516e,,13f181c731b8eacb862fd9d0a4d4f775,41.739078,-74.603762,404523185,uuuu,US,US,1479861257,41.763715,-74.619958,0,Fallsburg,102082407,404/523/185/404523185.geojson,localadmin,85688543,quattroshapes,,,US
"-79.060708,42.26018,-78.942871,42.348382",uuuu,85633793,,3693e9c78d4a8a791e32dbe32cb69081,,3174a7be4e6568bd3f9a0c5bd3cc0d1c,42.304111,-79.002054,404521171,uuuu,US,US,1479862394,42.304433,-79.002054,0,Leon,102081853,404/521/171/404521171.geojson,localadmin,85688543,quattroshapes,,,US
"-78.943352,42.172353,-78.825274,42.260476",uuuu,85633793,,0d55b5546976a7621ec384a0d7dcf1e0,,9cc74b4d5b4811e9e83b4a2db288c9bf,42.216470,-78.884501,404521175,uuuu,US,US,1479862394,42.216396,-78.884501,0,Napoli,102081853,404/521/175/404521175.geojson,localadmin,85688543,quattroshapes,,,US
"-79.234805,41.9989475737182,-79.1449956209558,42.076195",uuuu,85633793,,6411a2440f755c382688845553308368,,1e8689200eb697b0226cbe759e607ef6,42.034108,-79.199677,404522083,uuuu,US,US,1479862725,42.029987,-79.205023,0,Kiantone,102081811,404/522/083/404522083.geojson,localadmin,85688543,quattroshapes,,,US
"-79.527645,42.085444,-79.367437,42.173031",uuuu,85633793,,87622b108f805d02a24fcbbecc8d74e0,,b833eb418313fbb7294079667fdb3644,42.125863,-79.457564,404522085,uuuu,US,US,1479861446,42.129188,-79.457558,0,North Harmony,102081811,404/522/085/404522085.geojson,localadmin,85688543,quattroshapes,,,US
"-74.786927,41.493743,-74.597403,41.604143",uuuu,85633793,,aa936a91187e3589f6d06f09733fb54e,,d96b9f0d33d9dec58a7a51e6dafa4423,41.546805,-74.696674,404523187,uuuu,US,US,1479863867,41.546006,-74.696678,0,Forestburgh,102082407,404/523/187/404523187.geojson,localadmin,85688543,quattroshapes,,,US
"-79.17894,42.086371,-79.059264,42.173833",uuuu,85633793,,169968263d81d51e5ae9af5b93cdf4f2,,dc6f4f145eacced69b10fb9da417b8a6,42.130024,-79.119135,404522087,uuuu,US,US,1479862395,42.130113,-79.119182,0,Poland,102081811,404/522/087/404522087.geojson,localadmin,85688543,quattroshapes,,,US
"-75.146446,41.793283,-74.930716,41.924007",uuuu,85633793,,f924e64d5db8c7d65a04fccb8b0237e3,,fec5e6925ba48a2875bd528fc2458509,41.859528,-75.028197,404523191,uuuu,US,US,1479862925,41.859913,-75.026565,0,Fremont,102082407,404/523/191/404523191.geojson,localadmin,85688543,quattroshapes,,,US
"-74.985595,41.4598049400021,-74.790473,41.615882",uuuu,85633793,,f7ba1040c65fe0c07d1cb6bb22546960,,440222bd27ac9c4699ee502cdef56b0e,41.538695,-74.889144,404523193,uuuu,US,US,1479861724,41.532224,-74.887667,0,Highland,102082407,404/523/193/404523193.geojson,localadmin,85688543,quattroshapes,,,US
"-74.90419401061838,41.42166,-74.750412,41.604722",uuuu,85633793,,5940df637208af6c885bed36a800fff4,,1a7d0542f48075ce53615c983f34bb97,41.493733,-74.811585,404523195,uuuu,US,US,1479863866,41.488992,-74.806364,0,Lumberland,102082407,404/523/195/404523195.geojson,localadmin,85688543,quattroshapes,,,US
"-78.316634,42.224492,-78.309145,42.238866",uuuu,85633793,,df7f6fc6106251410939b410432877e6,,bb0d51174ac1fb33564ce83f0a0c758d,42.231708,-78.312885,404521177,uuuu,US,US,1479862394,42.231697,-78.312885,0,Oil Springs,102081853,404/521/177/404521177.geojson,localadmin,85688543,quattroshapes,,,US
"-79.061233,42.434138,-78.943737,42.522885",uuuu,85633793,,4de4d2d9f5d3b696e5328492c0829366,,1bedd3b3d93513aee2b47cdd6356bdf6,42.474067,-79.012502,404521179,uuuu,US,US,1479862394,42.475414,-79.019495,0,Perrysburg,102081853,404/521/179/404521179.geojson,localadmin,85688543,quattroshapes,,,US
"-79.059737,42.084263,-78.942642,42.173403",uuuu,85633793,,5a3a49852a888c9ee14c3e94e856c495,,4c508a77b24a17dd4163a5863e12c391,42.129268,-79.000938,404521181,uuuu,US,US,1479862396,42.129194,-79.000938,0,Randolph,102081853,404/521/181/404521181.geojson,localadmin,85688543,quattroshapes,,,US
"-78.584081,42.443901,-78.444888,42.536332",uuuu,85633793,,4714d2c473dc52133078ee28a3af5bd9,,83c47ce45fc48d3900df0d5390510450,42.483401,-78.513314,404521183,uuuu,US,US,1479862393,42.481159,-78.511990,0,Yorkshire,102081853,404/521/183/404521183.geojson,localadmin,85688543,quattroshapes,,,US
"-74.472144,43.214684,-74.209759,43.347378",uuuu,85633793,,8bdf04f5eee124c0672a8ce4615db8ff,,8454e9ca08b9a0e82987209e2c104bc2,43.281432,-74.351817,404521185,uuuu,US,US,1479864914,43.292213,-74.354316,0,Benson,102083035,404/521/185/404521185.geojson,localadmin,85688543,quattroshapes,,,US
"-74.310314,43.249262,-74.140147,43.359527",uuuu,85633793,,114cd1da835e74e39450d108ac4535af,,d53f4a895c669695eeaff10c92ba6588,43.307901,-74.208786,404521187,uuuu,US,US,1479864914,43.307509,-74.201898,0,Hope,102083035,404/521/187/404521187.geojson,localadmin,85688543,quattroshapes,,,US
"-74.538754,43.380476,-74.307781,43.822278",uuuu,85633793,,4dab6cc1e0ba7646f7b1afb401ade044,,dc07767ee7d5b642a05a18ba08577d4e,43.569053,-74.426635,404521189,uuuu,US,US,1479864914,43.575607,-74.415225,0,Lake Pleasant,102083035,404/521/189/404521189.geojson,localadmin,85688543,quattroshapes,,,US
"-75.076826,42.94514,-74.902297,43.026256",uuuu,85633793,,c89ded066fd479ccc71e06bd0c0b6eef,,68200efedba37f440407235741c79ed6,42.986841,-74.980414,404521193,uuuu,US,US,1479862192,42.984597,-74.978749,0,German Flatts,102081877,404/521/193/404521193.geojson,localadmin,85688543,quattroshapes,,,US
"-79.411698,42.348176,-79.294717,42.457303",uuuu,85633793,,77752127f8e0e33ed4e4ce809490303d,,15ea39e1d9b61f49e3d03daa6918efa1,42.402828,-79.353376,404522089,uuuu,US,US,1479861446,42.403101,-79.353361,0,Pomfret,102081811,404/522/089/404522089.geojson,localadmin,85688543,quattroshapes,,,US
"-74.620742,41.498421,-74.364486,41.697185",uuuu,85633793,,f5a65876260e888f6820e52d834be518,,e994786d6ed45137db33b086e5d612ef,41.585998,-74.495076,404523197,uuuu,US,US,1479863867,41.586425,-74.495125,0,Mamakating,102082407,404/523/197/404523197.geojson,localadmin,85688543,quattroshapes,,,US
"-74.709773,41.796817,-74.453685,41.963676",uuuu,85633793,,13085d2f6e01e8d8596f8d9f528c857b,,2ee111c5989cbf0d77393b8a17a6fb1b,41.872037,-74.591074,404523199,uuuu,US,US,1479861257,41.875609,-74.591166,0,Neversink,102082407,404/523/199/404523199.geojson,localadmin,85688543,quattroshapes,,,US
"-74.985156,41.868751,-74.655032,42.016375",uuuu,85633793,,3af0c21525b9ed4d8b84a590be2d959c,,120f30e4d8067ab7f8bb32849be849ee,41.938709,-74.796972,404523201,uuuu,US,US,1479861257,41.939239,-74.810727,0,Rockland,102082407,404/523/201/404523201.geojson,localadmin,85688543,quattroshapes,,,US
"-74.786615,41.55657,-74.531097,41.742527",uuuu,85633793,,587ac401f66ce58d54b5bf7a4296f3dd,,d3c1ad54d046cd970b73cfcabf526ee7,41.647421,-74.674479,404523203,uuuu,US,US,1479848709,41.653883,-74.704504,0,Thompson,102082407,404/523/203/404523203.geojson,localadmin,85688543,quattroshapes,,,US
"-75.074626,41.50533855975839,-74.880522,41.6499377248171",uuuu,85633793,,0b30c5ee7007119286e66c1d8fdf0d71,,c1341f323e6782a45aafc428644101e5,41.583741,-74.983054,404523205,uuuu,US,US,1479862927,41.575785,-74.976409,0,Tusten,102082407,404/523/205/404523205.geojson,localadmin,85688543,quattroshapes,,,US
"-75.115866,43.114816,-74.968957,43.230137",uuuu,85633793,,1ec68fceb46abee42ac0884b57e76e5d,,83849acb7088e2611c1058e2619b6b3b,43.177861,-75.036458,404521195,uuuu,US,US,1479865941,43.182751,-75.035346,0,Newport,102081877,404/521/195/404521195.geojson,localadmin,85688543,quattroshapes,,,US
"-74.903863,42.863237,-74.751037,42.965578",uuuu,85633793,,0a512d48bf58bbbbef5c6c8334a5676d,,4afd3023c27dd15a439a2a268448d9d2,42.917338,-74.821271,404521197,uuuu,US,US,1479862191,42.916944,-74.821271,0,Stark,102081877,404/521/197/404521197.geojson,localadmin,85688543,quattroshapes,,,US
"-75.212158,42.856549,-75.100999,42.940574",uuuu,85633793,,0c867376092bd96de9defacf13431a74,,537763d021205317b9ea426d29f078ad,42.898207,-75.163398,404521199,uuuu,US,US,1479865940,42.897192,-75.163398,0,Winfield,102081877,404/521/199/404521199.geojson,localadmin,85688543,quattroshapes,,,US
"-76.201807410824,44.087002,-75.990447,44.31580393099249",uuuu,85633793,,b7953ff6c7cc42085351bde2ede88d3d,,449c9a7e8b8fd686ab116777c6e77e5a,44.200237,-76.080475,404521201,uuuu,US,US,1479850101,44.201781,-76.080474,0,Clayton,102082357,404/521/201/404521201.geojson,localadmin,85688543,quattroshapes,,,US
"-75.794105,44.087311,-75.616126,44.206266",uuuu,85633793,,af5458e27304f8817bc7fc495c9de638,,edb34aea088f20a4080438fef18795d2,44.146500,-75.705567,404521203,uuuu,US,US,1479850102,44.146916,-75.705555,0,Philadelphia,102082357,404/521/203/404521203.geojson,localadmin,85688543,quattroshapes,,,US
"-79.5281395205345,42.298872,-79.411345,42.4467900787126",uuuu,85633793,,5160724997e565f494313b161bc0bffc,,66d023d1cd2cd21bb6ccb8655ee23684,42.365677,-79.467570,404522093,uuuu,US,US,1479861446,42.365558,-79.466714,0,Portland,102081811,404/522/093/404522093.geojson,localadmin,85688543,quattroshapes,,,US
"-79.762152,42.1733159916777,-79.643911,42.3159463915074",uuuu,85633793,,6f05e3a3d186f480ff0db3402383bdea,,a476246a0dae6fb5361746a5c2495c8a,42.232927,-79.699219,404522095,uuuu,US,US,1479902700,42.232360,-79.699263,0,Ripley,102081811,404/522/095/404522095.geojson,localadmin,85688543,quattroshapes,,,US
"-79.295029,42.435063,-79.1782021341198,42.5485118765659",uuuu,85633793,,0a2b22e4f177ff6e0a7b416877bdc7ac,,0f8452342cca095d9f50d971ca39d919,42.485416,-79.235039,404522097,uuuu,US,US,1479861447,42.483746,-79.239767,0,Sheridan,102081811,404/522/097/404522097.geojson,localadmin,85688543,quattroshapes,,,US
"-79.428032,42.238593,-79.295388,42.349359",uuuu,85633793,,f70f1b75674d93e8fd588fb95b7a7c9e,,265c19d78dc26ce06674501a19152e2c,42.296914,-79.358604,404522099,uuuu,US,US,1479861447,42.299297,-79.358591,0,Stockton,102081811,404/522/099/404522099.geojson,localadmin,85688543,quattroshapes,,,US
"-76.563565,41.9991050870808,-76.43366,42.155912",uuuu,85633793,,bd28339c451488c16d848d9310bab734,,21ae22770eab6208a79c973bcbf8bb37,42.081295,-76.498355,404523209,uuuu,US,US,1479860433,42.084766,-76.493109,0,Barton,102082391,404/523/209/404523209.geojson,localadmin,85688543,quattroshapes,,,US
"-75.979122,43.791886,-75.84056,43.894324",uuuu,85633793,,ef3221665aee2511a9e2627fae37c389,,f2181df6c2880d09bb21d6ba84b472f0,43.841819,-75.910231,404521205,uuuu,US,US,1479857458,43.841765,-75.910231,0,Rodman,102082357,404/521/205/404521205.geojson,localadmin,85688543,quattroshapes,,,US
"-75.91401,43.688884,-75.774553,43.794212",uuuu,85633793,,3ae8ea1f1c1574b7a8bd7b9e2b31a5e0,,846044fa60c11b84772c47dd898982f8,43.742388,-75.844507,404521207,uuuu,US,US,1479862832,43.742758,-75.844502,0,Worth,102082357,404/521/207/404521207.geojson,localadmin,85688543,quattroshapes,,,US
"-74.0424119629985,40.566161483009,-73.833365,40.739446",uuuu,85633793,,68bcb9ca27653d99b186016679aaeb11,,70d1e29597064ab0259614aedb514865,40.638923,-73.938781,404521211,uuuu,US,US,1479862689,40.638318,-73.940748,0,Brooklyn,102082361,404/521/211/404521211.geojson,localadmin,85688543,quattroshapes,421205765,,US
"-75.545886,44.036244,-75.164076,44.217655",uuuu,85633793,,f6c93878d24cbbf7b7c5e80667e1e20b,,ac02869a770650f053647325d619cba8,44.107495,-75.367836,404521213,uuuu,US,US,1479862193,44.116182,-75.386891,0,Diana,102085867,404/521/213/404521213.geojson,localadmin,85688543,quattroshapes,,,US
"-79.6447351472445,42.17338,-79.526686,42.3731589312239",uuuu,85633793,,2fad174602f49db178e47a9f7b607803,,fa9c97fc945e76a4b541d862693f6503,42.277795,-79.595404,404522101,uuuu,US,US,1479861447,42.289794,-79.604346,0,Westfield,102081811,404/522/101/404522101.geojson,localadmin,85688543,quattroshapes,,,US
"-76.806565,42.0013044441762,-76.70165390486379,42.056605",uuuu,85633793,,c291faa3cc780b82ce66572868b47810,,2377b9839628e745a7fa9dd6e9f2722e,42.024365,-76.753772,404522103,uuuu,US,US,1479860432,42.023011,-76.754774,0,Ashland,102081819,404/522/103/404522103.geojson,localadmin,85688543,quattroshapes,,,US
"-76.723827,42.056203,-76.555077,42.131251",uuuu,85633793,,610bf9b2e65dd6fd66b10d6aa64be318,,13236fd765ed66fd011c4e375bd73c77,42.099521,-76.663765,404522105,uuuu,US,US,1479860104,42.092803,-76.683580,0,Baldwin,102081819,404/522/105/404522105.geojson,localadmin,85688543,quattroshapes,,,US
"-76.966109,42.076174,-76.860269,42.200469",uuuu,85633793,,eacca520554c8c32e22a32961abc687e,,ca3dfcb93c85ebea0f2b90afa25cc011,42.138742,-76.913844,404522107,uuuu,US,US,1479864238,42.138175,-76.913844,0,Big Flats,102081819,404/522/107/404522107.geojson,localadmin,85688543,quattroshapes,,,US
"-76.719923,42.00014890612029,-76.541726,42.113135",uuuu,85633793,,b38a352616b5dfff45cb532920a617c5,,1ead4a6244df16e3ea3748c285311ef1,42.049344,-76.618968,404522111,uuuu,US,US,1479860434,42.046224,-76.599458,0,Chemung,102081819,404/522/111/404522111.geojson,localadmin,85688543,quattroshapes,,,US
"-76.842274,42.064651,-76.776711,42.120203",uuuu,85633793,,c4eefdecd14bc95538a4a5b564ea19c1,,5bda0b255aa6380d50075a0fc5451e00,42.093796,-76.809720,404522113,uuuu,US,US,1479860103,42.095138,-76.809223,0,Elmira,102081819,404/522/113/404522113.geojson,localadmin,85688543,quattroshapes,,,US
"-76.865786,42.044617,-76.719554,42.127362",uuuu,85633793,,7d86e1b7bd09a9c03ac6f8c57c658cf1,,a640aec644a9777a0f05c6484b7af14e,42.093690,-76.775965,404522115,uuuu,US,US,1479860104,42.097399,-76.752690,0,Elmira,102081819,404/522/115/404522115.geojson,localadmin,85688543,quattroshapes,,,US
"-76.861776,42.123374,-76.723827,42.200742",uuuu,85633793,,2f6a8fa374ac4730628ba84476e7ab24,,a40dbbbd1b7e9e3e83a9cfa7678a9e28,42.162478,-76.794064,404522117,uuuu,US,US,1479860104,42.162536,-76.794043,0,Horseheads,102081819,404/522/117/404522117.geojson,localadmin,85688543,quattroshapes,,,US
"-76.965928,42.0012735436595,-76.766248,42.081203",uuuu,85633793,,62fdf43dadbc924b0de1f07f21a8969f,,44d7085d5b66ddd4d4ea95bcac1ceeaa,42.039974,-76.877429,404522119,uuuu,US,US,1479902616,42.040590,-76.877404,0,Southport,102081819,404/522/119/404522119.geojson,localadmin,85688543,quattroshapes,,,US
"-76.642256,42.130191,-76.535782,42.282853",uuuu,85633793,,63da10ed32d3dbe60e6ca22dd0989ee1,,90418e9a66ae6d31e739d935d05e8085,42.211986,-76.578866,404522121,uuuu,US,US,1479860104,42.212791,-76.573542,0,Van Etten,102081819,404/522/121/404522121.geojson,localadmin,85688543,quattroshapes,,,US
"-76.848191,42.199074,-76.727925,42.294423",uuuu,85633793,,6cef4319ed4d8bf34f5c9b6825053028,,82de1914c892576fb8c57d975ecaada5,42.246722,-76.789095,404522123,uuuu,US,US,1479860104,42.247128,-76.789093,0,Veteran,102081819,404/522/123/404522123.geojson,localadmin,85688543,quattroshapes,,,US
"-75.557371,42.244582,-75.404829,42.333158",uuuu,85633793,,93f8c9f31f1cd32c1fa48c6c692877af,,12183029533d6bba7d10008ac19006c9,42.295892,-75.476862,404522125,uuuu,US,US,1479849095,42.295415,-75.476864,0,Bainbridge,102082367,404/522/125/404522125.geojson,localadmin,85688543,quattroshapes,,,US
"-75.427988,42.641573,-75.292825,42.744106",uuuu,85633793,,57753c612eb117102faff25d13a3aff0,,9057a4ad19011f91f5aa0681664530c1,42.696400,-75.367393,404522129,uuuu,US,US,1479902117,42.691920,-75.375463,0,Columbus,102082367,404/522/129/404522129.geojson,localadmin,85688543,quattroshapes,,,US
"-75.698222,42.233019,-75.555341,42.346215",uuuu,85633793,,aed24be0441d964085914004604843ab,,72aa0901c6fc97125c28a743c5e30182,42.293519,-75.625258,404522131,uuuu,US,US,1479861943,42.294762,-75.624307,0,Coventry,102082367,404/522/131/404522131.geojson,localadmin,85688543,quattroshapes,,,US
"-76.417158,42.153649,-76.231489,42.318509",uuuu,85633793,,78d561a55945921f831b83a37a4a57b2,,cf53ecc756fe20c6b7f847a2fd92f266,42.232032,-76.332504,404523211,uuuu,US,US,1479849435,42.231243,-76.332527,0,Candor,102082391,404/523/211/404523211.geojson,localadmin,85688543,quattroshapes,,,US
"-76.251332,42.180655,-76.080681,42.278752",uuuu,85633793,,64ca3389e6b59dfc559c17de7ce2f7e0,,f8cb6a8f41744d0a330eb039f163a06f,42.230296,-76.162953,404523213,uuuu,US,US,1479861943,42.230325,-76.162972,0,Newark Valley,102082391,404/523/213/404523213.geojson,localadmin,85688543,quattroshapes,,,US
"-76.47303045547619,41.998346,-76.273773,42.094226",uuuu,85633793,,99b6d47468b284b4f353adcc6d8c9e81,,0b92091d52385f6568d2d93b74646478,42.029652,-76.349475,404523215,uuuu,US,US,1479860434,42.031521,-76.314845,0,Nichols,102082391,404/523/215/404523215.geojson,localadmin,85688543,quattroshapes,,,US
"-76.278823,41.9985403546389,-76.104829,42.18561",uuuu,85633793,,31fa1d0ceda05b2bc2cab73370b9ef3f,,5a1621a162205d661402c50352847041,42.088136,-76.190615,404523217,uuuu,US,US,1479863241,42.087370,-76.191762,0,Owego,102082391,404/523/217/404523217.geojson,localadmin,85688543,quattroshapes,,,US
"-76.299627,42.334322,-76.109286,42.410337",uuuu,85633793,,4aee9588a3cb3e2caa837f95977f70fe,,36afcdef36be56536f2f007601ad769c,42.374521,-76.194750,404523219,uuuu,US,US,1479864986,42.372220,-76.194656,0,Richford,102082391,404/523/219/404523219.geojson,localadmin,85688543,quattroshapes,,,US
"-75.719629,43.779151,-75.581258,43.875089",uuuu,85633793,,2aed6c5d3c7ba46e16d6d456f962b232,,f4a89545ca1431b58f49a596ea7efe79,43.827055,-75.650762,404521215,uuuu,US,US,1479857457,43.827018,-75.650762,0,Harrisburg,102085867,404/521/215/404521215.geojson,localadmin,85688543,quattroshapes,,,US
"-75.786759,43.644568,-75.632242,43.78832",uuuu,85633793,,d4af6b5949ca7485d5d89df74990a296,,5a1bf30bdfbe47054f7ee328b11ce4fd,43.717881,-75.709857,404521217,uuuu,US,US,1479862832,43.717277,-75.709857,0,Montague,102085867,404/521/217/404521217.geojson,localadmin,85688543,quattroshapes,,,US
"-75.769507,43.455157,-75.575535,43.655327",uuuu,85633793,,d660b70375340aed41503fd0341e074d,,122a40d72405e44cbd0af6ba6a994939,43.562854,-75.691938,404521219,uuuu,US,US,1479865939,43.564332,-75.691938,0,Osceola,102085867,404/521/219/404521219.geojson,localadmin,85688543,quattroshapes,,,US
"-75.859275,42.244091,-75.672303,42.385027",uuuu,85633793,,5da84876bb1f0be5d481d4618b1cf1ac,,70b1b02ec97cd52906ca4b768b213bb8,42.318698,-75.769199,404522133,uuuu,US,US,1479861943,42.317081,-75.769177,0,Greene,102082367,404/522/133/404522133.geojson,localadmin,85688543,quattroshapes,,,US
"-76.44184,42.024714,-76.26327,42.15482",uuuu,85633793,,edf665b20d2924b317787b9f7e319cd9,,8898dbeb072b5eb3b761ca78e377e951,42.100671,-76.366532,404523221,uuuu,US,US,1479849435,42.101425,-76.377117,0,Tioga,102082391,404/523/221/404523221.geojson,localadmin,85688543,quattroshapes,,,US
"-76.454102,42.396385,-76.253877,42.550453",uuuu,85633793,,68299a31365ddbed4af59d7f4cd7fead,,fd7d977d1755858ec19f798e36201047,42.478612,-76.356349,404523223,uuuu,US,US,1479864986,42.481291,-76.356327,0,Dryden,102082355,404/523/223/404523223.geojson,localadmin,85688543,quattroshapes,,,US
"-76.692134,42.390351,-76.569059,42.482298",uuuu,85633793,,33f4b068f8da2d48db679262d270d3b4,,384cce5c698e97381b1c5e28c9cf3f4a,42.436303,-76.629924,404523227,uuuu,US,US,1479849301,42.436303,-76.629924,0,Enfield,102082355,404/523/227/404523227.geojson,localadmin,85688543,quattroshapes,,,US
"-76.4584,42.545917,-76.261481,42.623588",uuuu,85633793,,9274b4b26ffd2f8448facf1fd69c215e,,4a5b931d4d43ff62db15c6a42d496c6e,42.584667,-76.359780,404523229,uuuu,US,US,1479865479,42.584742,-76.359774,0,Groton,102082355,404/523/229/404523229.geojson,localadmin,85688543,quattroshapes,,,US
"-76.526947,42.418331,-76.4702,42.467079",uuuu,85633793,,785814c1441399e420de611e1d3ac976,,50c4a91f27f86141c8fd1edcc4249f6c,42.444190,-76.503172,404523231,uuuu,US,US,1479848159,42.443333,-76.506008,0,Ithaca,102082355,404/523/231/404523231.geojson,localadmin,85688543,quattroshapes,,,US
"-76.573033,42.393843,-76.445932,42.481149",uuuu,85633793,,c7892f6894de507be86eb8408dfd793d,,834cbd6a15126b66008e3295c5b3f581,42.435403,-76.511760,404523233,uuuu,US,US,1479848159,42.413190,-76.482883,0,Ithaca,102082355,404/523/233/404523233.geojson,localadmin,85688543,quattroshapes,,,US
"-77.718062,42.671963,-77.598815,42.763648",uuuu,85633793,,c634ae3ad8f87eb5ed46ecdbc3958569,,cc6ac0c647d0ac11ded7e8c86a190c0c,42.716886,-77.661147,404521221,uuuu,US,US,1479850040,42.717888,-77.661189,0,Conesus,102082381,404/521/221/404521221.geojson,localadmin,85688543,quattroshapes,,,US
"-75.522829,42.331226,-75.374617,42.469078",uuuu,85633793,,15e7bc9a04e60803b37e05a31b9c26b6,,68d7882350592f217f2972035ebe82c4,42.401377,-75.457223,404522135,uuuu,US,US,1479849095,42.405953,-75.461182,0,Guilford,102082367,404/522/135/404522135.geojson,localadmin,85688543,quattroshapes,,,US
"-77.71655,42.762964,-77.587997,42.855882",uuuu,85633793,,4feb04652182ef8a3d1dea2f0ebb50e8,,6e9165c7e68e902d7fb54bd9ad39d2ec,42.809072,-77.652310,404521223,uuuu,US,US,1479850040,42.809174,-77.652309,0,Livonia,102082381,404/521/223/404521223.geojson,localadmin,85688543,quattroshapes,,,US
"-77.955351,42.517771,-77.840694,42.610487",uuuu,85633793,,9fa4023575c83f24e4f39eb5c48efcf6,,97bb87b0fe2435d7a0f43b9ccf703ee3,42.564291,-77.897897,404521225,uuuu,US,US,1479850041,42.564309,-77.897897,0,Nunda,102082381,404/521/225/404521225.geojson,localadmin,85688543,quattroshapes,,,US
"-77.655865,42.577288,-77.486875,42.672358",uuuu,85633793,,45cb82295503e87bda73194d5eab31f3,,28fa5a0bd46b7d96e8ddafb746abc257,42.625656,-77.571281,404521229,uuuu,US,US,1479864239,42.625316,-77.571280,0,Springwater,102082381,404/521/229/404521229.geojson,localadmin,85688543,quattroshapes,,,US
"-75.789511,42.451265,-75.661907,42.550873",uuuu,85633793,,17e71bb4a912f3e4ec734a02ace43b8f,,8da2a68b1d040a5df7932cb89d53f377,42.501040,-75.725814,404522137,uuuu,US,US,1479849096,42.501093,-75.725821,0,Mcdonough,102082367,404/522/137/404522137.geojson,localadmin,85688543,quattroshapes,,,US
"-75.455851,42.508404,-75.322983,42.646453",uuuu,85633793,,98d13cd08fd0f6df54371df0106b6211,,d7b3058cbe803a809d4be5469e3fdab3,42.584640,-75.394778,404522139,uuuu,US,US,1479849096,42.583857,-75.402692,0,New Berlin,102082367,404/522/139/404522139.geojson,localadmin,85688543,quattroshapes,,,US
"-75.536271,42.513975,-75.506458,42.550656",uuuu,85633793,,871ca32ad0299e390a0178f77a276072,,af6a83446a6158378ca4143e4c9a212d,42.533395,-75.522759,404522141,uuuu,US,US,1479849096,42.534113,-75.522533,0,Norwich,102082367,404/522/141/404522141.geojson,localadmin,85688543,quattroshapes,,,US
"-75.564112,42.466529,-75.395221,42.562036",uuuu,85633793,,d7b0ea38408cf7d03fe984ca82f5888d,,5a6f07760ddb2a6b612e9533970391f9,42.508548,-75.488090,404522143,uuuu,US,US,1479849095,42.502525,-75.483994,0,Norwich,102082367,404/522/143/404522143.geojson,localadmin,85688543,quattroshapes,,,US
"-75.803349,42.638283,-75.677629,42.73415",uuuu,85633793,,2e9e57ffcafd803425133169d427162f,,f522a16945a61275bf2ec8dfee5b91ff,42.686051,-75.740317,404522147,uuuu,US,US,1479902119,42.686030,-75.740317,0,Otselic,102082367,404/522/147/404522147.geojson,localadmin,85688543,quattroshapes,,,US
"-75.674588,42.330876,-75.521588,42.467004",uuuu,85633793,,1b645502e18cc38ce8bd66d230c2cade,,a53ce095083b8a0f291c2740c76042e1,42.400213,-75.591140,404522149,uuuu,US,US,1479849095,42.403249,-75.591062,0,Oxford,102082367,404/522/149/404522149.geojson,localadmin,85688543,quattroshapes,,,US
"-75.882325,42.542716,-75.789658,42.640861",uuuu,85633793,,87019dd8ac8dc5f8ed965f568f60e903,,71a9a5db6c29cb7d9308d871a0c123c7,42.592066,-75.835798,404522151,uuuu,US,US,1479864987,42.591970,-75.835798,0,Pitcher,102082367,404/522/151/404522151.geojson,localadmin,85688543,quattroshapes,,,US
"-75.677629,42.550873,-75.539188,42.648248",uuuu,85633793,,1e283a78804ff34672a1fddfe07fc52d,,4b9fad2bfc534a059b0a56080dd8c2aa,42.600094,-75.608723,404522153,uuuu,US,US,1479849095,42.600054,-75.608723,0,Plymouth,102082367,404/522/153/404522153.geojson,localadmin,85688543,quattroshapes,,,US
"-75.898657,42.723844,-75.803349,42.829314",uuuu,85633793,,8fbd04911d8a45e18e3329e73c8fb9bf,,d3cb9a04bf9d48411d2b324e046f45da,42.776881,-75.850736,404521231,uuuu,US,US,1479902118,42.776552,-75.850736,0,Deruyter,102080989,404/521/231/404521231.geojson,localadmin,85688543,quattroshapes,,,US
"-75.81021,42.728421,-75.684093,42.829174",uuuu,85633793,,b017d134aa7c96eefec24dcdf585a675,,d9642990cda9f74e239aabffcfa00aa7,42.779129,-75.747172,404521233,uuuu,US,US,1479902118,42.779107,-75.747172,0,Georgetown,102080989,404/521/233/404521233.geojson,localadmin,85688543,quattroshapes,,,US
"-76.739361,42.893356,-76.592863,42.969043",uuuu,85633793,,45845b40b197da242c12dc3e221366c9,,1a089dc89c71cbbc4684550d1364b0e0,42.927645,-76.669300,404521235,uuuu,US,US,1479865479,42.931823,-76.689881,0,Aurelius,102083071,404/521/235/404521235.geojson,localadmin,85688543,quattroshapes,,,US
"-75.55251,42.627625,-75.418015,42.745421",uuuu,85633793,,6c026b9120eb523889ec5e919787c9ea,,630c74924e80a0914505c936a3d1a450,42.692371,-75.483294,404522155,uuuu,US,US,1479902117,42.696800,-75.483295,0,Sherburne,102082367,404/522/155/404522155.geojson,localadmin,85688543,quattroshapes,,,US
"-75.866573,42.379121,-75.655904,42.457597",uuuu,85633793,,f9720d7fe131fee0d9469166f834ee86,,2c51fbf146a286e362f33151c5420856,42.417320,-75.758742,404522157,uuuu,US,US,1479864986,42.416557,-75.746102,0,Smithville,102082367,404/522/157/404522157.geojson,localadmin,85688543,quattroshapes,,,US
"-75.684093,42.643189,-75.546425,42.739402",uuuu,85633793,,1a4cb5b2fcd4663e534eb3f56fc7b161,,712ec18906ef85ee7fe96d6f2878884c,42.691410,-75.615200,404522159,uuuu,US,US,1479902118,42.691462,-75.615173,0,Smyrna,102082367,404/522/159/404522159.geojson,localadmin,85688543,quattroshapes,,,US
"-73.794334,44.777066,-73.530353,44.913522",uuuu,85633793,,5257c6ac5d4bb3f32c96108be6c46edf,,cf7bb4c4ed534845e1dc16aed58ae79d,44.849592,-73.666093,404522161,uuuu,US,US,1479862221,44.848692,-73.666150,0,Altona,102081797,404/522/161/404522161.geojson,localadmin,85688543,quattroshapes,,,US
"-73.642979,44.454386,-73.33863,44.5636027365224",uuuu,85633793,,ca6f61bde503ad3c7ea45b3311bf34b7,,43817b810c2a66b0b61fec158bdb6659,44.515563,-73.535120,404522165,uuuu,US,US,1479862221,44.500297,-73.588665,0,Au Sable,102081797,404/522/165/404522165.geojson,localadmin,85688543,quattroshapes,,,US
"-73.671913,44.726333,-73.333154,44.8280601203749",uuuu,85633793,,9d5c124fc570bf9db192554c6f084c02,,e0df1f2e02f8ee4fc0ec7c44a50a2943,44.771937,-73.499703,404522167,uuuu,US,US,1479903414,44.770141,-73.499660,0,Beekmantown,102081797,404/522/167/404522167.geojson,localadmin,85688543,quattroshapes,,,US
"-73.521172,44.904695,-73.337906,45.01084",uuuu,85633793,,476a424ffeae8b0aa4809e737082f8b4,,f65d6ac71915a3628f7a55aa8ba81af2,44.959090,-73.432360,404522169,uuuu,US,US,1479903414,44.959649,-73.432425,0,Champlain,102081797,404/522/169/404522169.geojson,localadmin,85688543,quattroshapes,,,US
"-73.555291,44.799325,-73.3395342002786,44.9168851346264",uuuu,85633793,,2476eed0d77ca41eeef843545b3eb7df,,95931dd993520edab0efc7a8c47e7a60,44.861643,-73.459000,404522171,uuuu,US,US,1479903414,44.857074,-73.458997,0,Chazy,102081797,404/522/171/404522171.geojson,localadmin,85688543,quattroshapes,,,US
"-76.666543,42.477027,-76.450579,42.627416",uuuu,85633793,,0b54fa4726fba709aba6dbaf2a17c07c,,2d651a8b33908ae2e0c997e803a3c07b,42.566684,-76.531572,404523235,uuuu,US,US,1479865478,42.569947,-76.512043,0,Lansing,102082355,404/523/235/404523235.geojson,localadmin,85688543,quattroshapes,,,US
"-74.674823,41.859904,-74.33779,42.038031",uuuu,85633793,,c89cb3574a88b3311e3e676332afdf37,,4e7c9d16bfe80e28495dcf2c385045ed,41.952287,-74.487049,404523237,uuuu,US,US,1479861257,41.958636,-74.484488,0,Denning,102081775,404/523/237/404523237.geojson,localadmin,85688543,quattroshapes,,,US
"-74.072505,41.763677,-73.939389,41.921358",uuuu,85633793,,84d71f667776529a705b758093dda24e,,9ba058cbed6c1710df1a11cb98000d84,41.842550,-73.993630,404523239,uuuu,US,US,1479861257,41.843884,-73.994640,0,Esopus,102081775,404/523/239/404523239.geojson,localadmin,85688543,quattroshapes,,,US
"-74.303632,41.64124,-74.083727,41.75214",uuuu,85633793,,afc6637a2058acd0002d67cc93762433,,161db8aa0f7dc0894ddc12ca9ce570ea,41.694893,-74.186923,404523241,uuuu,US,US,1479861256,41.699742,-74.177807,0,Gardiner,102081775,404/523/241/404523241.geojson,localadmin,85688543,quattroshapes,,,US
"-74.780693,41.971675,-74.459406,42.127406",uuuu,85633793,,3d909860bda6ef56ed68e47cb54e95a7,,67e3c042fea512590f15217a7602bf41,42.047074,-74.608723,404523245,uuuu,US,US,1479861256,42.045690,-74.606040,0,Hardenburgh,102081775,404/523/245/404523245.geojson,localadmin,85688543,quattroshapes,,,US
"-74.189997,41.890737,-74.043564,42.025388",uuuu,85633793,,5a8d0207b1d169210448650c4bfd6902,,023b78b00649d4e0821cbdcaa33b1710,41.962143,-74.115870,404523247,uuuu,US,US,1479861256,41.972632,-74.126930,0,Hurley,102081775,404/523/247/404523247.geojson,localadmin,85688543,quattroshapes,,,US
"-74.044629,41.902063,-73.953709,41.952748",uuuu,85633793,,a0fafefed13fca833d6983c96e7ca1bf,,c7bac9ca5600c7d0cd2680b46134c821,41.929485,-73.996760,404523249,uuuu,US,US,1479861257,41.927916,-73.997449,0,Kingston,102081775,404/523/249/404523249.geojson,localadmin,85688543,quattroshapes,,,US
"-76.437943,42.296676,-76.237818,42.416349",uuuu,85633793,,ef3fa38ff937831b4aa57f934ed96ddd,,83dda6e6005861d45cd04b3e92f38d9d,42.358602,-76.329921,404523251,uuuu,US,US,1479864986,42.361571,-76.337988,0,Caroline,102082355,404/523/251/404523251.geojson,localadmin,85688543,quattroshapes,,,US
"-74.083862,41.668826,-73.940989,41.790883",uuuu,85633793,,f9a278042a9a0f31e05b36f246ca0dcd,,bf8f2b66a9747aea597fa19bd91b6580,41.728643,-73.996147,404523253,uuuu,US,US,1479861257,41.734670,-73.991259,0,Lloyd,102081775,404/523/253/404523253.geojson,localadmin,85688543,quattroshapes,,,US
"-74.258802,41.760608,-74.084056,41.955844",uuuu,85633793,,2febef834fe0d32521a2f4fa76b3fea6,,e5f524164bd7f9e180f8edd77d8d4baa,41.869916,-74.162739,404523255,uuuu,US,US,1479861256,41.875228,-74.164061,0,Marbletown,102081775,404/523/255/404523255.geojson,localadmin,85688543,quattroshapes,,,US
"-74.169027,41.691266,-74.017969,41.808906",uuuu,85633793,,11999fd5204e00b000a9e31a12b21515,,5786f504d86c10c3cadd5e267f7499c0,41.757725,-74.088263,404523257,uuuu,US,US,1479861256,41.756505,-74.093423,0,New Paltz,102081775,404/523/257/404523257.geojson,localadmin,85688543,quattroshapes,,,US
"-74.355392,41.861166,-74.170353,42.020698",uuuu,85633793,,1c752744af575d70052122971356f9d4,,9525eb9614a2bd6205d5bec4e0e88e58,41.946938,-74.263082,404523259,uuuu,US,US,1479861256,41.943070,-74.270573,0,Olive,102081775,404/523/259/404523259.geojson,localadmin,85688543,quattroshapes,,,US
"-74.144248,41.58061,-74.012763,41.713146",uuuu,85633793,,bcb8f1b6610bdce9c8e506b77037b593,,0b98de76ebebb3cd911ab9961ef33f6d,41.647779,-74.071721,404523263,uuuu,US,US,1479863866,41.645754,-74.078199,0,Plattekill,102081775,404/523/263/404523263.geojson,localadmin,85688543,quattroshapes,,,US
"-74.426454,41.694209,-74.156736,41.91307",uuuu,85633793,,d02f08339645e9ebba0600a35fb0cf1a,,31f420138e471b924fd2fd924d3d9e84,41.812268,-74.279740,404523265,uuuu,US,US,1479861256,41.813906,-74.268514,0,Rochester,102081775,404/523/265/404523265.geojson,localadmin,85688543,quattroshapes,,,US
"-74.12525,41.798098,-74.034597,41.902224",uuuu,85633793,,fe4b8dff6d862323bc450c623868362a,,13961b3c1fdc6c74960b99bc76b3de5e,41.847264,-74.078589,404523267,uuuu,US,US,1479861255,41.847096,-74.079449,0,Rosendale,102081775,404/523/267/404523267.geojson,localadmin,85688543,quattroshapes,,,US
"-76.690294,42.622103,-76.458858,42.68481",uuuu,85633793,,90ba1eab1371b42292027a669e5129a7,,4bfb7d07b615929b85c69d84ffefc31d,42.653254,-76.567990,404521237,uuuu,US,US,1479865478,42.652404,-76.567990,0,Genoa,102083071,404/521/237/404521237.geojson,localadmin,85688543,quattroshapes,,,US
"-76.670992,43.007302,-76.590171,43.083294",uuuu,85633793,,41896f9dbb54fffc33e14635ced511ca,,2c01b2bf7f3739227dd286bd5bef1996,43.041420,-76.631984,404521239,uuuu,US,US,1479865478,43.041225,-76.631214,0,Mentz,102083071,404/521/239/404521239.geojson,localadmin,85688543,quattroshapes,,,US
"-76.631571,42.753041,-76.468742,42.840964",uuuu,85633793,,be345f6173e55ecb00aac435738ca2b6,,dc9bd27887aaba569d5b9a5f10ff53e6,42.794825,-76.561446,404521241,uuuu,US,US,1479865478,42.797087,-76.561446,0,Scipio,102083071,404/521/241/404521241.geojson,localadmin,85688543,quattroshapes,,,US
"-76.368575,42.621109,-76.265584,42.698334",uuuu,85633793,,415be4a8322136133c9570860518b552,,54217b780f695ad44ad207bce7ec1083,42.659552,-76.317211,404521243,uuuu,US,US,1479865479,42.659593,-76.317211,0,Summerhill,102083071,404/521/243/404521243.geojson,localadmin,85688543,quattroshapes,,,US
"-76.080213,42.647375,-75.959017,42.784871",uuuu,85633793,,ae583bc3a5f3c6d7ae2238c3e1168dc7,,f5d36cb6dae845bda65f02d375a8a45a,42.710749,-76.026808,404522173,uuuu,US,US,1479864987,42.702580,-76.027950,0,Truxton,102083011,404/522/173/404522173.geojson,localadmin,85688543,quattroshapes,,,US
"-75.967113,42.410917,-75.86402,42.490218",uuuu,85633793,,e14684b122ea91c7993125bd0a4f77d8,,962ac1b56a18102d2223b7781392c687,42.450678,-75.916016,404522175,uuuu,US,US,1479864987,42.450628,-75.916017,0,Willet,102083011,404/522/175/404522175.geojson,localadmin,85688543,quattroshapes,,,US
"-74.896433,42.016375,-74.669689,42.240906",uuuu,85633793,,3417c06f170c26508bf2d054f0b1f086,,91a7a9972532115762651f73c8233ee9,42.130833,-74.790050,404522177,uuuu,US,US,1479861256,42.137055,-74.814934,0,Andes,102082375,404/522/177/404522177.geojson,localadmin,85688543,quattroshapes,,,US
"-74.835763,42.190891,-74.663491,42.32089",uuuu,85633793,,6ab5d1fd53df6a3ca3b5a26c3a9f3cd6,,6ace9a5e2616f734a72900a301c9a381,42.268048,-74.758450,404522179,uuuu,US,US,1479847392,42.275950,-74.745399,0,Bovina,102082375,404/522/179/404522179.geojson,localadmin,85688543,quattroshapes,,,US
"-75.108026,41.918485,-74.780693,42.144539",uuuu,85633793,,5431c5874be883c3d087167aac3b35cf,,74bde27714bbc83bf38fe1bf681f4bb4,42.041752,-74.958540,404522183,uuuu,US,US,1479861257,42.039552,-74.961023,0,Colchester,102082375,404/522/183/404522183.geojson,localadmin,85688543,quattroshapes,,,US
"-74.083847,42.006651,-73.910675,42.176992",uuuu,85633793,,d58f1bde0c03d4bf06c45fc28e95c41d,,89df23e91880286b4f1e8e274e9c19c1,42.089145,-73.996894,404523269,uuuu,US,US,1479861255,42.086956,-73.995240,0,Saugerties,102081775,404/523/269/404523269.geojson,localadmin,85688543,quattroshapes,,,US
"-74.395071,41.582544,-74.124663,41.694589",uuuu,85633793,,d3e7700c94684600475072791ab4f211,,59d41e19f9cea3faa5c235af9ed969a0,41.633513,-74.265433,404523271,uuuu,US,US,1479863866,41.644357,-74.323778,0,Shawangunk,102081775,404/523/271/404523271.geojson,localadmin,85688543,quattroshapes,,,US
"-74.086138,41.875412,-73.936796,42.027316",uuuu,85633793,,4f9fa1d700ce7fbdb854f0a395200e3f,,f73c5d60d0bc0c51ffae6ab4c178a52a,41.969939,-74.004130,404523273,uuuu,US,US,1479861256,41.975147,-73.986602,0,Ulster,102081775,404/523/273/404523273.geojson,localadmin,85688543,quattroshapes,,,US
"-75.059068,42.394584,-74.771123,42.512591",uuuu,85633793,,4330d2dbc82ca061e2c96cc5a3c499f1,,3cf0902fc918180698f4eabab3d9662a,42.454926,-74.902117,404522185,uuuu,US,US,1479848996,42.454964,-74.902050,0,Davenport,102082375,404/522/185/404522185.geojson,localadmin,85688543,quattroshapes,,,US
"-75.423038,41.9932410813581,-75.320399,42.187308",uuuu,85633793,,acca5f0d8a612eedaa14c95587b1c86d,,3bf6767c3caf2ff640a14f5b6698b362,42.084364,-75.377951,404522187,uuuu,US,US,1479862927,42.081785,-75.387237,0,Deposit,102082375,404/522/187/404522187.geojson,localadmin,85688543,quattroshapes,,,US
"-75.205884,42.252819,-75.001761,42.43064",uuuu,85633793,,3d9a8d79f14ff5a4fff4204623397c1e,,84ef516598199141d261308b58b8ab58,42.333526,-75.111163,404522189,uuuu,US,US,1479848996,42.328969,-75.109207,0,Franklin,102082375,404/522/189/404522189.geojson,localadmin,85688543,quattroshapes,,,US
"-75.091151,42.126637,-74.869871,42.295057",uuuu,85633793,,d6c44d05bd4bf741de1f18c69fd5aab8,,5c9fd09dd06891c9c311e93a813511a4,42.200119,-74.984166,404522191,uuuu,US,US,1479847391,42.174695,-74.965721,0,Hamden,102082375,404/522/191/404522191.geojson,localadmin,85688543,quattroshapes,,,US
"-75.34246,41.848327,-74.997252,42.075451",uuuu,85633793,,b2a3fd835c5a2561bf6620f9d8e6d52e,,8e9da48cb2fc4c064d4f8e80fb60b1af,41.957245,-75.163230,404522193,uuuu,US,US,1479862926,41.958450,-75.137067,0,Hancock,102082375,404/522/193/404522193.geojson,localadmin,85688543,quattroshapes,,,US
"-74.793977,42.381119,-74.61655,42.517799",uuuu,85633793,,60a36e2cbee311cc56cc20882c7f0834,,7810362ed95d5882b477aa4186368a7f,42.451772,-74.699798,404522195,uuuu,US,US,1479864063,42.452881,-74.699838,0,Harpersfield,102082375,404/522/195/404522195.geojson,localadmin,85688543,quattroshapes,,,US
"-74.887806,42.31453,-74.682343,42.472752",uuuu,85633793,,427bc26fe66a014eff491562384f898d,,b35afb10ff24baf9f0f876b36c5b37b8,42.391428,-74.782514,404522197,uuuu,US,US,1479847392,42.400180,-74.780987,0,Kortright,102082375,404/522/197/404522197.geojson,localadmin,85688543,quattroshapes,,,US
"-74.575086,41.644876,-74.266032,41.875595",uuuu,85633793,,f32ae5b156c060ac250259536c457570,,cb7efda5c05525bfe556551161d4c64b,41.752632,-74.417244,404523275,uuuu,US,US,1479861257,41.749941,-74.417220,0,Wawarsing,102081775,404/523/275/404523275.geojson,localadmin,85688543,quattroshapes,,,US
"-73.750813,43.442282,-73.525347,43.678377",uuuu,85633793,,6b1e685c768298a4337ce06c7baf06f9,,b6b01f8a8e41c4215026d5f1c68f8075,43.575348,-73.654096,404523277,uuuu,US,US,1479864069,43.573142,-73.671154,0,Bolton,102081791,404/523/277/404523277.geojson,localadmin,85688543,quattroshapes,,,US
"-74.057005,43.571227,-73.744859,43.770641",uuuu,85633793,,8ef6269516ca4db24ab4d8fe372b0af2,,fca1ebece4713537da771909d7de86d5,43.688370,-73.865820,404523281,uuuu,US,US,1479864914,43.664859,-73.842103,0,Chester,102081791,404/523/281/404523281.geojson,localadmin,85688543,quattroshapes,,,US
"-73.67298,43.289572,-73.619736,43.327143",uuuu,85633793,,e761fac905513d86d68772a7e28056d8,,d7f26d94b6ed16b83054555128b28778,43.310838,-73.645814,404523283,uuuu,US,US,1479862207,43.312736,-73.652069,0,Glens Falls,102081791,404/523/283/404523283.geojson,localadmin,85688543,quattroshapes,,,US
"-76.626488,42.679296,-76.46219,42.761231",uuuu,85633793,,9ab723f79e2bb77dec5c235e66acd93c,,948629649fde94b476d0634ee95cfbf8,42.719096,-76.543205,404521247,uuuu,US,US,1479865478,42.718904,-76.543205,0,Venice,102083071,404/521/247/404521247.geojson,localadmin,85688543,quattroshapes,,,US
"-79.295733,42.348332,-79.178202,42.435354",uuuu,85633793,,9b3cb9d8aaa65ead5fef867b59818659,,c75a2756142b29b8551a989392048045,42.391998,-79.236762,404521249,uuuu,US,US,1479861447,42.391990,-79.236762,0,Arkwright,102081811,404/521/249/404521249.geojson,localadmin,85688543,quattroshapes,,,US
"-79.178855,42.260256,-79.060399,42.348366",uuuu,85633793,,4e79e7566e756596fd41a5cc94327c87,,0022654753a64581d5ca02298155b876,42.304223,-79.119614,404521251,uuuu,US,US,1479862394,42.304240,-79.119616,0,Cherry Creek,102081811,404/521/251/404521251.geojson,localadmin,85688543,quattroshapes,,,US
"-75.051581,42.289777,-74.828853,42.430285",uuuu,85633793,,be5e9acb236970cc5faca4f5c8ec91c4,,7205566819b15dd9937e032d4354a74d,42.364696,-74.943428,404522201,uuuu,US,US,1479847391,42.359532,-74.963676,0,Meredith,102082375,404/522/201/404522201.geojson,localadmin,85688543,quattroshapes,,,US
"-74.767373,42.067819,-74.451713,42.259844",uuuu,85633793,,6901f5a7de8bfd3c16c75ef5f4ee351d,,8ed6da20456aeddb7b679eb25239c488,42.160742,-74.625501,404522203,uuuu,US,US,1479861256,42.162271,-74.623101,0,Middletown,102082375,404/522/203/404522203.geojson,localadmin,85688543,quattroshapes,,,US
"-74.684332,42.201424,-74.428196,42.404193",uuuu,85633793,,adcf2cf6e607301550d574b4112b85da,,9d8cb67bdacb4684d8777987ec2cd42e,42.298117,-74.550586,404522205,uuuu,US,US,1479864063,42.285380,-74.552543,0,Roxbury,102082375,404/522/205/404522205.geojson,localadmin,85688543,quattroshapes,,,US
"-75.416109,42.247471,-75.19096,42.379852",uuuu,85633793,,d5e25eb5137b462fd4ed62331c662276,,6cf6119f309b13b9849dc1959c63f34b,42.307284,-75.277251,404522207,uuuu,US,US,1479849095,42.306829,-75.250853,0,Sidney,102082375,404/522/207/404522207.geojson,localadmin,85688543,quattroshapes,,,US
"-74.824311,42.28568,-74.562998,42.423946",uuuu,85633793,,3f3a5979b641c0806a75f038e832cc60,,0c5312ebb8016bd517ffd6ee93c57472,42.349423,-74.658231,404522209,uuuu,US,US,1479864063,42.339227,-74.656387,0,Stamford,102082375,404/522/209/404522209.geojson,localadmin,85688543,quattroshapes,,,US
"-75.236892,42.068927,-74.999877,42.268179",uuuu,85633793,,5e421f6189f594064cee27145924edcd,,92d9f7b7816bdc17bc40a6cb36d0ccee,42.174070,-75.127321,404522211,uuuu,US,US,1479847393,42.177137,-75.129063,0,Walton,102082375,404/522/211/404522211.geojson,localadmin,85688543,quattroshapes,,,US
"-73.638665,43.635642,-73.43661,43.803687",uuuu,85633793,,2c5b4502f1ac2ed14da53c38da77826a,,27610f393359b126a58c43f556e713d7,43.727545,-73.548192,404523285,uuuu,US,US,1479864069,43.724944,-73.546261,0,Hague,102081791,404/523/285/404523285.geojson,localadmin,85688543,quattroshapes,,,US
"-73.814419,43.623705,-73.63196,43.784852",uuuu,85633793,,3622236caf19c9cadd0ce275605d90c5,,ccfeb688dcb2c79b8f3d0160ef067a74,43.711560,-73.714539,404523287,uuuu,US,US,1479862206,43.711358,-73.707187,0,Horicon,102081791,404/523/287/404523287.geojson,localadmin,85688543,quattroshapes,,,US
"-74.214625,43.52088,-73.860246,43.744513",uuuu,85633793,,102546ea20eb816d24c32a55487ac1e3,,05d512d6608ed17281933782136304e6,43.630103,-74.053413,404523289,uuuu,US,US,1479864914,43.635464,-74.074510,0,Johnsburg,102081791,404/523/289/404523289.geojson,localadmin,85688543,quattroshapes,,,US
"-73.989279,41.480626,-73.935177,41.524947",uuuu,85633793,,a7f282c940af3c58e00d5474a55940b8,,aecd65579c0ff4e47f5102aacc277cd6,41.503596,-73.965485,404522213,uuuu,US,US,1479848379,41.500885,-73.968149,0,Beacon,102082363,404/522/213/404522213.geojson,localadmin,85688543,quattroshapes,,,US
"-73.883299,43.222123,-73.740354,43.40814",uuuu,85633793,,e08baa74dabe741592a067a407f1eab2,,4076ef15366d25cc1d170850dc7ed484,43.326288,-73.802717,404523291,uuuu,US,US,1479862206,43.343864,-73.803645,0,Lake Luzerne,102081791,404/523/291/404523291.geojson,localadmin,85688543,quattroshapes,,,US
"-73.764792,43.250072,-73.59496,43.486391",uuuu,85633793,,35dc7399ae5a8fd1edc7d6c9608dc663,,3e04ace0cd6c5eb356812f9abe704d33,43.356814,-73.676504,404523293,uuuu,US,US,1479864068,43.334127,-73.710592,0,Queensbury,102081791,404/523/293/404523293.geojson,localadmin,85688543,quattroshapes,,,US
"-74.172445,43.371532,-73.851507,43.487612",uuuu,85633793,,71a62afbc4b6c96384024dbfd66018f2,,b488d64d0d4f2c088f74700ac4e6fbca,43.426661,-74.023664,404523295,uuuu,US,US,1479864914,43.427392,-74.023629,0,Stony Creek,102081791,404/523/295/404523295.geojson,localadmin,85688543,quattroshapes,,,US
"-74.182555,43.445813,-73.805504,43.583713",uuuu,85633793,,0a11cdb03cbb39c01a16b61d611b97e7,,be0e79a591e4e4eb1bd013a5f3aa1932,43.503846,-73.980935,404523299,uuuu,US,US,1479864914,43.509580,-73.899640,0,Thurman,102081791,404/523/299/404523299.geojson,localadmin,85688543,quattroshapes,,,US
"-73.885324,43.397988,-73.726898,43.632496",uuuu,85633793,,09d2551e0d75df30ef9ccd10b76e8e01,,f0c38886b2e92bf98c871f0c2df821f4,43.505359,-73.794822,404523301,uuuu,US,US,1479862206,43.558411,-73.786997,0,Warrensburg,102081791,404/523/301/404523301.geojson,localadmin,85688543,quattroshapes,,,US
"-73.535967,43.158211,-73.392596,43.310474",uuuu,85633793,,f08993a726dd16081c3020e1ce0349e2,,dbdd71ff57aa211ef151f1cbf4fb4261,43.238280,-73.469843,404523303,uuuu,US,US,1479864069,43.242177,-73.469831,0,Argyle,102083153,404/523/303/404523303.geojson,localadmin,85688543,quattroshapes,,,US
"-73.517323,42.943356,-73.378356,43.073958",uuuu,85633793,,3e8f54afbe8074d27c389d8726bfe816,,ba28a7f1b8548afe048d25ca0724ad04,43.000715,-73.447423,404523305,uuuu,US,US,1479864069,43.006333,-73.434783,0,Cambridge,102083153,404/523/305/404523305.geojson,localadmin,85688543,quattroshapes,,,US
"-79.64528380873809,41.9984839086706,-79.527623,42.086139",uuuu,85633793,,d663c5f3b9728719fe2be344aef4ebff,,a37de3e3ef96d30d7b8d48dafe0a49f5,42.042332,-79.586275,404521253,uuuu,US,US,1479902701,42.042318,-79.586274,0,Clymer,102081811,404/521/253/404521253.geojson,localadmin,85688543,quattroshapes,,,US
"-73.76518,41.521613,-73.627636,41.647849",uuuu,85633793,,c4370a9b3bcb3ac598e26d436d01a6d3,,7ffbb970f23928ad7b2bf8e4208931c2,41.603660,-73.695023,404522215,uuuu,US,US,1479848378,41.604646,-73.696060,0,Beekman,102082363,404/522/215/404522215.geojson,localadmin,85688543,quattroshapes,,,US
"-73.891603,41.81157,-73.757139,41.924684",uuuu,85633793,,cd23178c1cc53160d21d38fc580c04b0,,8d11c36ad80e02ccaadb701797171a47,41.862462,-73.817020,404522219,uuuu,US,US,1479848379,41.862586,-73.815732,0,Clinton,102082363,404/522/219/404522219.geojson,localadmin,85688543,quattroshapes,,,US
"-73.63551,41.607885,-73.510961,41.758749",uuuu,85633793,,0421ad65572a58f9813b3d87e2a741a0,,5d2fa8caafdceb7a6484c0e03d02928d,41.683839,-73.573697,404522221,uuuu,US,US,1479855375,41.685009,-73.574528,0,Dover,102082363,404/522/221/404522221.geojson,localadmin,85688543,quattroshapes,,,US
"-73.859995,41.495741,-73.673285,41.633808",uuuu,85633793,,83e7d1f163ae494a52304de1ffaede39,,e83506e24ac9b7a905b7338d0856618c,41.556635,-73.782430,404522223,uuuu,US,US,1479864054,41.560901,-73.784217,0,East Fishkill,102082363,404/522/223/404522223.geojson,localadmin,85688543,quattroshapes,,,US
"-74.000108,41.438905,-73.842633,41.559558",uuuu,85633793,,d6a9b026e9009fea168ae5ec982a379c,,d286d49e2dd4207a97ccef89734e00ae,41.512929,-73.927090,404522225,uuuu,US,US,1479864054,41.521607,-73.907109,0,Fishkill,102082363,404/522/225/404522225.geojson,localadmin,85688543,quattroshapes,,,US
"-73.73134,42.249824,-73.577187,42.365804",uuuu,85633793,,e5bfa7c8ff2c7facc11196f0ac7aa7d2,,6dee515b45853423042680051cce44b0,42.311978,-73.650900,404522227,uuuu,US,US,1479849934,42.311263,-73.649431,0,Ghent,102082369,404/522/227/404522227.geojson,localadmin,85688543,quattroshapes,,,US
"-73.584134,43.534469,-73.3935750235143,43.699527722367",uuuu,85633793,,257afb1872d957c4446594794a8ec634,,6ca619cfce15ed1cb68890a9d9343bbc,43.614641,-73.478818,404523307,uuuu,US,US,1479902227,43.600538,-73.480269,0,Dresden,102083153,404/523/307/404523307.geojson,localadmin,85688543,quattroshapes,,,US
"-79.178924,42.173403,-79.059711,42.260722",uuuu,85633793,,73b56521c2733d19103b57b203d673a3,,c2d2150c01212ad3d82b53899f59887c,42.216988,-79.119422,404521255,uuuu,US,US,1479862394,42.217081,-79.119422,0,Ellington,102081811,404/521/255/404521255.geojson,localadmin,85688543,quattroshapes,,,US
"-73.851286,42.180683,-73.744393,42.288356",uuuu,85633793,,bcfec4ac49a03198308824e6b3df440d,,dd8778ae8eed1b9ebaddd68427c3ce37,42.227691,-73.793476,404522229,uuuu,US,US,1479849933,42.216933,-73.794283,0,Greenport,102082369,404/522/229/404522229.geojson,localadmin,85688543,quattroshapes,,,US
"-73.808974,42.239458,-73.768079,42.263473",uuuu,85633793,,7216ea5db9ce9614a5b57f88d9a8c273,,0b84f1b380ecc4577d6378594b48ad55,42.251507,-73.785963,404522231,uuuu,US,US,1479849934,42.252108,-73.785963,0,Hudson,102082369,404/522/231/404522231.geojson,localadmin,85688543,quattroshapes,,,US
"-79.5279932931024,41.998255,-79.38039448500619,42.085977",uuuu,85633793,,e4e4b119099874d79cbdcd5abf84deae,,3853f31e9fa8d4958dc1fd3de514da1f,42.041971,-79.454149,404521257,uuuu,US,US,1479862725,42.041975,-79.454149,0,Harmony,102081811,404/521/257/404521257.geojson,localadmin,85688543,quattroshapes,,,US
"-79.762122,42.086139,-79.643965,42.173552",uuuu,85633793,,cd8976f742246e5aed86be48182b9e16,,53939864c3a0ad9a5cc1f39f8c92afbb,42.129926,-79.703044,404521259,uuuu,US,US,1479902700,42.129873,-79.703044,0,Mina,102081811,404/521/259/404521259.geojson,localadmin,85688543,quattroshapes,,,US
"-79.64459,42.085444,-79.526173,42.173443",uuuu,85633793,,e83b4f4eb6c37e9e09100fff006af15d,,e0825e6cd0154a73ace47c381f23f8eb,42.129616,-79.585630,404521261,uuuu,US,US,1479861446,42.129564,-79.585630,0,Sherman,102081811,404/521/261/404521261.geojson,localadmin,85688543,quattroshapes,,,US
"-79.178555,42.347917,-79.060701,42.435832",uuuu,85633793,,ba5ddf18d962320d5a4ca4ec1c4133af,,18e8843aadaa3ddc61d4275d21fd6933,42.391750,-79.119544,404521265,uuuu,US,US,1479862394,42.391781,-79.119544,0,Villenova,102081811,404/521/265/404521265.geojson,localadmin,85688543,quattroshapes,,,US
"-76.96584,42.199045,-76.845979,42.293314",uuuu,85633793,,d8a558ca2939ca644bceff1547ee161a,,ec0c6cea8c5892e1a71170d577fe03a0,42.244947,-76.905619,404521267,uuuu,US,US,1479864239,42.245106,-76.905619,0,Catlin,102081819,404/521/267/404521267.geojson,localadmin,85688543,quattroshapes,,,US
"-76.730568,42.127362,-76.610638,42.248333",uuuu,85633793,,ff17feb33b95e1b330b42c2f629ddd31,,e28e0456c39330dde8b45175f0a9bde0,42.184410,-76.672687,404521269,uuuu,US,US,1479860103,42.183244,-76.671888,0,Erin,102081819,404/521/269/404521269.geojson,localadmin,85688543,quattroshapes,,,US
"-75.637525,42.195032,-75.417277,42.285701",uuuu,85633793,,59a557de1f6a8708a244b8b08360ec1c,,8883d770f03f4aac1b9648c3376493fc,42.227480,-75.523929,404521271,uuuu,US,US,1479861943,42.227817,-75.526027,0,Afton,102082367,404/521/271/404521271.geojson,localadmin,85688543,quattroshapes,,,US
"-75.874224,42.447703,-75.78169,42.546655",uuuu,85633793,,b0052d49d260549fce7b1563a4a92a53,,c939677b410a4bcaea167ec4d1e2dc10,42.497011,-75.828002,404521273,uuuu,US,US,1479864986,42.497012,-75.828002,0,German,102082367,404/521/273/404521273.geojson,localadmin,85688543,quattroshapes,,,US
"-75.889832,42.637695,-75.7967,42.728421",uuuu,85633793,,ae76a1760215ec526e1e7382b832ad53,,82ca4a07a29216b854478f7ae03c5367,42.682676,-75.842952,404521275,uuuu,US,US,1479902117,42.682544,-75.842952,0,Lincklaen,102082367,404/521/275/404521275.geojson,localadmin,85688543,quattroshapes,,,US
"-75.546425,42.557844,-75.451645,42.652386",uuuu,85633793,,a331c202e0ab542bc14a90401a7eba59,,11e872677dfc95136e5fdbf11fb58782,42.605120,-75.498632,404521277,uuuu,US,US,1479849096,42.605079,-75.498631,0,North Norwich,102082367,404/521/277/404521277.geojson,localadmin,85688543,quattroshapes,,,US
"-73.723003,42.345894,-73.628807,42.477707",uuuu,85633793,,4b97dab3c9e7d4d5aa02c18df5709cf4,,b2e2a13b9b87658643b42c724a5d5c2d,42.411600,-73.682296,404522233,uuuu,US,US,1479860027,42.408954,-73.682296,0,Kinderhook,102082369,404/522/233/404522233.geojson,localadmin,85688543,quattroshapes,,,US
"-73.863877,42.044541,-73.720146,42.203091",uuuu,85633793,,4307ad4adfa900dc69561fce25090d43,,aeec92382b03d52217d75dac25323600,42.140464,-73.795440,404522237,uuuu,US,US,1479849934,42.145963,-73.794321,0,Livingston,102082369,404/522/237/404522237.geojson,localadmin,85688543,quattroshapes,,,US
"-73.635463,42.941222,-73.457581,43.119619",uuuu,85633793,,48164d856f164e3711f23d91dadc81dd,,0e35d9d8dc35b175b59075469b5996c6,43.022107,-73.543658,404523309,uuuu,US,US,1479864069,43.023034,-73.542317,0,Easton,102083153,404/523/309/404523309.geojson,localadmin,85688543,quattroshapes,,,US
"-75.796452,42.54468,-75.670053,42.643189",uuuu,85633793,,8c808af343b0ddab27ce8881cbdbc0db,,dba4b9a37fd647eabbb329e7941b5e14,42.594148,-75.733630,404521279,uuuu,US,US,1479849096,42.594159,-75.733642,0,Pharsalia,102082367,404/521/279/404521279.geojson,localadmin,85688543,quattroshapes,,,US
"-75.670053,42.457597,-75.55591,42.556623",uuuu,85633793,,bd5aa5bbb422b1a59f4724dd4617528d,,c7bf786f25395bc8de3cbd0dd5257e98,42.506937,-75.612932,404521283,uuuu,US,US,1479849096,42.506893,-75.612930,0,Preston,102082367,404/521/283/404521283.geojson,localadmin,85688543,quattroshapes,,,US
"-73.947346,44.429699,-73.625445,44.606245",uuuu,85633793,,e8a861a344a8ccc5e327849843b99a0d,,b8b80ba1c3968d947667a00f50f0db13,44.512090,-73.794700,404521285,uuuu,US,US,1479862979,44.519010,-73.797779,0,Black Brook,102081797,404/521/285/404521285.geojson,localadmin,85688543,quattroshapes,,,US
"-74.0273918752465,44.886017,-73.80537,45.0022943050058",uuuu,85633793,,aaadf6543fc39218858a5444e202495a,,e5a7bd5f23448a34f2c58d84277e8d45,44.949119,-73.924921,404521287,uuuu,US,US,1479862980,44.946152,-73.924921,0,Clinton,102081797,404/521/287/404521287.geojson,localadmin,85688543,quattroshapes,,,US
"-73.993086,44.697204,-73.658533,44.78401",uuuu,85633793,,8d540f73c5d902b031f0086b8ae2bfce,,d673bf69d76b97741829b68ced85871c,44.741432,-73.826735,404521289,uuuu,US,US,1479862980,44.741555,-73.826735,0,Dannemora,102081797,404/521/289/404521289.geojson,localadmin,85688543,quattroshapes,,,US
"-74.006692,44.757761,-73.765155,44.964879",uuuu,85633793,,800ed4201f797f7a63a88820c592d871,,820f298030c478c03f89df83be0a6995,44.839358,-73.884579,404521291,uuuu,US,US,1479862980,44.832241,-73.882279,0,Ellenburg,102081797,404/521/291/404521291.geojson,localadmin,85688543,quattroshapes,,,US
"-73.787353,42.281453,-73.719205,42.35747",uuuu,85633793,,cddd49c2fe7122cc48594d1bd2153c23,,997cf7681350e8097f94f6da51169f45,42.318141,-73.753773,404522239,uuuu,US,US,1479849934,42.316075,-73.754422,0,Stockport,102082369,404/522/239/404522239.geojson,localadmin,85688543,quattroshapes,,,US
"-73.794327,42.341917,-73.71799,42.470751",uuuu,85633793,,1bc470cacec0a0f613e69945bc13a62e,,bbf055e3dc09d5f80ba5eac5da28cd84,42.404381,-73.752418,404522241,uuuu,US,US,1479860026,42.403784,-73.751692,0,Stuyvesant,102082369,404/522/241/404522241.geojson,localadmin,85688543,quattroshapes,,,US
"-75.971826,42.486702,-75.86968,42.5659",uuuu,85633793,,995cd09583687a7e75f3ababc1a2b240,,df24bd43821502dd27858c51af7f9829,42.525713,-75.920848,404522243,uuuu,US,US,1479864987,42.525835,-75.920849,0,Cincinnatus,102083011,404/522/243/404522243.geojson,localadmin,85688543,quattroshapes,,,US
"-76.20049,42.585547,-76.154685,42.614509",uuuu,85633793,,922f7b469e81f75ad72311ae48625279,,3dcc75e40935a7e05d455df4039676a7,42.600399,-76.178363,404522245,uuuu,US,US,1479864987,42.600410,-76.178363,0,Cortland,102083011,404/522/245/404522245.geojson,localadmin,85688543,quattroshapes,,,US
"-73.590938,43.084994,-73.386065,43.208921",uuuu,85633793,,7076aa46c1cdda56a08807d568a957a0,,81b0689cb7c9d2838e20774751112912,43.140451,-73.477994,404523311,uuuu,US,US,1479864069,43.126972,-73.484896,0,Greenwich,102083153,404/523/311/404523311.geojson,localadmin,85688543,quattroshapes,,,US
"-73.32813999187539,43.487053,-73.24139,43.628018",uuuu,85633793,,2bb226b57bd39e5854f9558c0ba46129,,bcba740f010de3edce45f56b7c8b3ed7,43.546722,-73.286194,404523313,uuuu,US,US,1479902228,43.543211,-73.281938,0,Hampton,102083153,404/523/313/404523313.geojson,localadmin,85688543,quattroshapes,,,US
"-73.487481,43.303095,-73.351432,43.417755",uuuu,85633793,,562edad623ee248ac27fc8e37e9b38a0,,23e7145e40caef7b2f883b98bfdbcebe,43.359174,-73.419078,404523317,uuuu,US,US,1479864069,43.361165,-73.419083,0,Hartford,102083153,404/523/317/404523317.geojson,localadmin,85688543,quattroshapes,,,US
"-73.410285,43.217377,-73.2531453878036,43.3529949074009",uuuu,85633793,,eb7c24afc448f702a872f6f943e6cf98,,cd9d33db404785ca3cfa0f3e705a3da8,43.281661,-73.323874,404523319,uuuu,US,US,1479902228,43.277464,-73.309567,0,Hebron,102083153,404/523/319/404523319.geojson,localadmin,85688543,quattroshapes,,,US
"-73.461703,43.03611,-73.2650637774847,43.146797",uuuu,85633793,,e887ffb0e2557b95c3e5479823c17c48,,dc9a6b7a27506f3509822530405be30d,43.087493,-73.377844,404523321,uuuu,US,US,1479864069,43.082998,-73.387507,0,Jackson,102083153,404/523/321/404523321.geojson,localadmin,85688543,quattroshapes,,,US
"-73.81525680431439,44.911536,-73.5193094554483,45.0068760723038",uuuu,85633793,,2223397132ad4c2df3aec38b4e3c8c59,,40665a10da1a2e1df79a02f11d8644c1,44.958857,-73.660750,404521293,uuuu,US,US,1479862222,44.957970,-73.660751,0,Mooers,102081797,404/521/293/404521293.geojson,localadmin,85688543,quattroshapes,,,US
"-73.964411,44.583425,-73.645113,44.725197",uuuu,85633793,,150711ded47ca11f45eab2d6fb4cea15,,0573bbeed1245a287ed3274cbc5aced4,44.655152,-73.807807,404521295,uuuu,US,US,1479862980,44.655751,-73.807806,0,Saranac,102081797,404/521/295/404521295.geojson,localadmin,85688543,quattroshapes,,,US
"-73.525004,42.34240440327549,-73.3820928961709,42.441488",uuuu,85633793,,1ee24b0facb8716aeaf7567043907212,,042e4de99bbb52bec187afa00e8ea3d9,42.394990,-73.459002,404521297,uuuu,US,US,1479852434,42.393544,-73.458977,0,Canaan,102082369,404/521/297/404521297.geojson,localadmin,85688543,quattroshapes,,,US
"-73.620831,42.069692114015,-73.47591804393001,42.181224",uuuu,85633793,,a5d6a03702ad833492bb093441b0d197,,4e43f8b1b96300516e77b00fb5f173cb,42.128576,-73.551187,404521301,uuuu,US,US,1479852433,42.127435,-73.551187,0,Copake,102082369,404/521/301/404521301.geojson,localadmin,85688543,quattroshapes,,,US
"-73.615229,42.1740039412646,-73.4428917594207,42.273895",uuuu,85633793,,85c5cd1cca5fa7a7d929e7e323815f81,,0f291d4d02042964cd4733f811b1897e,42.224413,-73.532364,404521303,uuuu,US,US,1479852432,42.223815,-73.532364,0,Hillsdale,102082369,404/521/303/404521303.geojson,localadmin,85688543,quattroshapes,,,US
"-73.521781,42.4294930473095,-73.352527,42.510002",uuuu,85633793,,c9ebe4c96ac2e469d52aa140eb1b9b15,,f7056cc64fde2be511bdadf9cb39d656,42.469047,-73.438341,404521305,uuuu,US,US,1479860028,42.467409,-73.438341,0,New Lebanon,102082369,404/521/305/404521305.geojson,localadmin,85688543,quattroshapes,,,US
"-73.764173,42.084425,-73.600132,42.183671",uuuu,85633793,,557c93f4c6682be038f908c3045a2366,,c653a391634a9432bf1f3289f830e45a,42.133299,-73.673389,404521307,uuuu,US,US,1479849934,42.128418,-73.674956,0,Taghkanic,102082369,404/521/307/404521307.geojson,localadmin,85688543,quattroshapes,,,US
"-76.005195,42.652054,-75.883843,42.790964",uuuu,85633793,,71bb65c16fdf824ccd20e9522951daa1,,5b1b57aa838b4a92286231d8f751dda6,42.726345,-75.937029,404521309,uuuu,US,US,1479902117,42.731265,-75.935908,0,Cuyler,102083011,404/521/309/404521309.geojson,localadmin,85688543,quattroshapes,,,US
"-76.160405,42.409735,-76.057633,42.484558",uuuu,85633793,,a88eb96f2c58d3db1af56f3981e794db,,b869018634ceeb3149a1c289c58e5390,42.446667,-76.109235,404521311,uuuu,US,US,1479864987,42.446728,-76.109235,0,Lapeer,102083011,404/521/311/404521311.geojson,localadmin,85688543,quattroshapes,,,US
"-76.195944,42.702946,-76.075124,42.780014",uuuu,85633793,,1062c9fb538076628d2decacb5c3ee8e,,115573e78c3171d400e24080c25c3727,42.742928,-76.132012,404521313,uuuu,US,US,1479864986,42.741339,-76.132012,0,Preble,102083011,404/521/313/404521313.geojson,localadmin,85688543,quattroshapes,,,US
"-76.261481,42.478205,-76.061946,42.555668",uuuu,85633793,,acce536045f84ef742bf087a438cf552,,0bfd53e936f0e91259a3020eb107443d,42.515828,-76.166429,404521315,uuuu,US,US,1479864986,42.517315,-76.166429,0,Virgil,102083011,404/521/315/404521315.geojson,localadmin,85688543,quattroshapes,,,US
"-76.265619,42.541943,-76.064928,42.633441",uuuu,85633793,,22fb09f983cb7de5d557c0532541efbe,,e9cf9adff8d102e4ca655b57c70fe7b8,42.589195,-76.161498,404522247,uuuu,US,US,1479865478,42.593361,-76.119335,0,Cortlandville,102083011,404/522/247/404522247.geojson,localadmin,85688543,quattroshapes,,,US
"-76.084401,42.484558,-75.967113,42.561233",uuuu,85633793,,0a921f5ddbe91ab1befa553f9a2a1410,,ead7bf842c1dad0afeef24cd510ebf97,42.523052,-76.018334,404522249,uuuu,US,US,1479864987,42.522637,-76.018334,0,Freetown,102083011,404/522/249/404522249.geojson,localadmin,85688543,quattroshapes,,,US
"-75.039635,42.20005,-74.79529,42.350103",uuuu,85633793,,404133205f90346996d0f05cf04873b2,,1acec3f7c9d5d6acdadba96dfbbff02a,42.273936,-74.909578,404521319,uuuu,US,US,1479847392,42.271784,-74.897461,0,Delhi,102082375,404/521/319/404521319.geojson,localadmin,85688543,quattroshapes,,,US
"-75.419664,42.150436,-75.209108,42.285415",uuuu,85633793,,11b010adcd226776d4fd95c51b5bd0bd,,7d87caef19183fb501ab2af99224a067,42.230784,-75.345455,404521321,uuuu,US,US,1479861944,42.232729,-75.352632,0,Masonville,102082375,404/521/321/404521321.geojson,localadmin,85688543,quattroshapes,,,US
"-75.354045,42.00058,-75.115874,42.233348",uuuu,85633793,,5758a87a24d04fcdade6d080634eb2e5,,074aa1ca56bc596796cdecc44f28beaa,42.110353,-75.264589,404521323,uuuu,US,US,1479847392,42.125763,-75.276322,0,Tompkins,102082375,404/521/323/404521323.geojson,localadmin,85688543,quattroshapes,,,US
"-73.61405,41.74981,-73.49945941077151,41.88822",uuuu,85633793,,fad4c0a1eb89f0538abe4c7c837bbb70,,108a4aeea8e815125c92877835ca1dfd,41.824335,-73.553417,404521325,uuuu,US,US,1479855375,41.825772,-73.552313,0,Amenia,102082363,404/521/325/404521325.geojson,localadmin,85688543,quattroshapes,,,US
"-73.8786,41.626384,-73.741645,41.731317",uuuu,85633793,,3b223114ed97f817b2bb3f77b04eb460,,5e5338fb1f2a892148b6e064aea68d34,41.678661,-73.802903,404521327,uuuu,US,US,1479848379,41.678729,-73.802929,0,La Grange,102082363,404/521/327/404521327.geojson,localadmin,85688543,quattroshapes,,,US
"-73.733797,41.932094,-73.556048,42.014725",uuuu,85633793,,6579d3683e745145633ec7cdacf310bd,,b1e5b9534eb596dfdf3d4f23ec15c9b8,41.969338,-73.651592,404521329,uuuu,US,US,1479849933,41.968310,-73.653285,0,Pine Plains,102082363,404/521/329/404521329.geojson,localadmin,85688543,quattroshapes,,,US
"-73.776886,41.836557,-73.605999,41.943084",uuuu,85633793,,adf2f33e03b96d9910833ea68356d534,,3547ef9010a503e1c21d1e654a6c9a7f,41.888485,-73.691728,404521331,uuuu,US,US,1479848380,41.888712,-73.691731,0,Stanford,102082363,404/521/331/404521331.geojson,localadmin,85688543,quattroshapes,,,US
